mlsno,area,soldprice,solddate,type,style,bdrm,wshrm,latitude,longitude,house_condo,maint,aptno,address
W3854388,Streetsville,1050000,2017-06-30,Detached,2-Storey,4,3,43.5762637,-79.729552,house,,,"2500 Hargood Pl, Mississauga"
W3817888,Cooksville,668000,2017-06-29,Semi-Detached,Bungalow-Raised,3,2,43.5636121,-79.6224754,house,,,"551 Cavell Dr, Mississauga"
W3850685,Applewood,670000,2017-06-29,Semi-Detached,Bungalow-Raised,3,2,43.6128743,-79.6079327,house,,,"3582 Birchmeadow Cres, Mississauga"
W3848786,Rathwood,804500,2017-06-29,Detached,2-Storey,3,3,43.616948,-79.6134344,house,,,"4186 Uxbridge Lane, Mississauga"
W3835920,Hurontario,889500,2017-06-29,Semi-Detached,2-Storey,4,4,43.5954636,-79.6648383,house,,,"4597 Centretown Way, Mississauga"
W3831279,Hurontario,905000,2017-06-29,Detached,2-Storey,4,4,43.6050003,-79.6676185,house,,,"308 Wendron Cres, Mississauga"
W3852453,Central Erin Mills,1060000,2017-06-29,Detached,2-Storey,4,3,43.5737078,-79.7167571,house,,,"2421 Yorktown Circ, Mississauga"
W3850663,Hurontario,1055000,2017-06-29,Detached,2-Storey,4,4,43.6160938,-79.6503111,house,,,"5208 Forestwalk Circ, Mississauga"
W3849806,Mineola,1080000,2017-06-29,Detached,Bungalow,2,2,43.569918,-79.5760836,house,,,"490 Avonwood Dr, Mississauga"
W3786174,Central Erin Mills,1460000,2017-06-29,Detached,2-Storey,4,4,43.5656046,-79.6943079,house,,,"4611 Badminton Dr, Mississauga"
W3845839,Clarkson,720000,2017-06-29,Semi-Detached,Backsplit 4,3,2,43.5072459,-79.652931,house,,,"1400 Buckby Rd, Mississauga"
W3830530,Applewood,235000,2017-06-29,Condo Apt,Apartment,1,1,43.6095386,-79.5891624,condo,434.47,204,"3105 Queen Frederica Dr, Mississauga"
W3850222,Hurontario,355000,2017-06-29,Condo Townhouse,Apartment,2,1,43.6169686,-79.6642886,condo,469.3,163,"85 Bristol Rd, Mississauga"
W3851550,City Centre,384500,2017-06-29,Comm Element Condo,Multi-Level,1,2,43.5895049,-79.6479385,condo,477.03,311,"365 Prince Of Wales Dr, Mississauga"
W3858549,Meadowvale,440000,2017-06-29,Condo Townhouse,Multi-Level,3,1,43.584966,-79.7628108,condo,447,70,"6780 Formentera Ave, Mississauga"
W3852890,Mineola,610100,2017-06-29,Condo Townhouse,2-Storey,3,2,43.5623125,-79.5900394,condo,394.72,25,"20 Mineola Rd, Mississauga"
W3844261,Malton,643111,2017-06-28,Semi-Detached,Bungalow-Raised,3,4,43.7211761,-79.6451656,house,,,"7452 Catalpa Rd, Mississauga"
W3854789,Rathwood,1350000,2017-06-28,Detached,2-Storey,5,4,43.6383144,-79.5892866,house,,,"4029 Garnetwood Chse, Mississauga"
W3850371,Erin Mills,625000,2017-06-28,Semi-Detached,Bungalow,3,2,43.5418223,-79.6990504,house,,,"4102 Jefton Cres, Mississauga"
W3851916,Churchill Meadows,660000,2017-06-28,Att/Row/Twnhouse,2-Storey,3,3,43.5381921,-79.7314379,house,,,"3735 Nightstar Dr, Mississauga"
W3844077,Lisgar,672000,2017-06-28,Semi-Detached,2-Storey,3,3,43.5818692,-79.782755,house,,,"3404 Spirea Terr, Mississauga"
W3834922,Erin Mills,662500,2017-06-28,Semi-Detached,2-Storey,3,2,43.5366697,-79.6799115,house,,,"3278 Chokecherry Cres, Mississauga"
W3821182,Churchill Meadows,745000,2017-06-28,Att/Row/Twnhouse,2-Storey,3,4,43.5459739,-79.7471152,house,,,"3883 Talias Cres, Mississauga"
W3849788,Port Credit,1150000,2017-06-28,Detached,2-Storey,2,2,43.5478042,-79.585552,house,,,"36 John St, Mississauga"
W3823748,East Credit,1555000,2017-06-28,Detached,2-Storey,4,4,43.5749887,-79.6900694,house,,,"1638 Barbertown Rd, Mississauga"
W3851382,Clarkson,783000,2017-06-28,Detached,Sidesplit 4,4,2,43.5166701,-79.6409868,house,,,"2165 Utley Rd, Mississauga"
W3831299,Erin Mills,935000,2017-06-28,Detached,2-Storey,4,4,43.5236911,-79.6920331,house,,,"3343 Turnstone Cres, Mississauga"
W3851393,Clarkson,1075888,2017-06-28,Detached,Bungalow-Raised,3,3,43.5194896,-79.6127161,house,,,"1404 Petrie Way, Mississauga"
W3838298,Hurontario,280000,2017-06-28,Condo Apt,Apartment,1,1,43.6014504,-79.6488788,condo,477.86,1401,"4470 Tucana Crt, Mississauga"
W3843636,Hurontario,379000,2017-06-28,Condo Apt,Apartment,2,2,43.6014504,-79.6488788,condo,637.79,1508,"4470 Tucana Crt, Mississauga"
W3838785,City Centre,399000,2017-06-28,Condo Apt,Apartment,2,2,43.5956374,-79.6348433,condo,508.9,3201,"80 Absolute Ave, Mississauga"
W3758801,East Credit,420000,2017-06-28,Condo Apt,Apartment,2,2,43.5922235,-79.6728245,condo,783.86,1202,"810 Scollard Crt, Mississauga"
W3853449,Creditview,500000,2017-06-28,Condo Apt,Apartment,2,2,43.5888685,-79.6517815,condo,829.25,1805,"350 Rathburn Rd, Mississauga"
W3842464,City Centre,510000,2017-06-28,Condo Apt,Apartment,2,2,43.5883799,-79.6399529,condo,585.21,2309,"223 Webb Dr, Mississauga"
W3841886,Central Erin Mills,730000,2017-06-28,Condo Townhouse,2-Storey,4,4,43.5670645,-79.7271046,condo,192,67,"2665 Thomas St, Mississauga"
W3831491,Churchill Meadows,309900,2017-06-28,Condo Townhouse,Stacked Townhse,1,1,43.5475616,-79.7211055,condo,183.96,102,"5035 Ocsar Peterson Blvd, Mississauga"
W3846455,Port Credit,540000,2017-06-28,Condo Apt,Apartment,1,1,43.5559675,-79.5821171,condo,559.09,421,"1 Hurontario St, Mississauga"
W3848377,Meadowvale Village,1555000,2017-06-27,Detached,2-Storey,4,6,43.630452,-79.7315478,house,,,"7148 White Pine Crt, Mississauga"
W3852697,Applewood,366000,2017-06-27,Vacant Land,Other,0,0,43.600056,-79.606224,house,,,"720 Hillman Cres, Mississauga"
W3814164,Meadowvale,700000,2017-06-27,Detached,2-Storey,3,2,43.5934638,-79.7766013,house,,,"7236 Seabreeze Dr, Mississauga"
W3851325,Meadowvale,700000,2017-06-27,Semi-Detached,2-Storey,3,3,43.5735252,-79.744379,house,,,"6298 Starfield Cres, Mississauga"
W3833701,Erin Mills,727000,2017-06-27,Detached,2-Storey,3,3,43.5532303,-79.692318,house,,,"2464 Ploughshare Crt, Mississauga"
W3838888,Lisgar,774900,2017-06-27,Detached,2-Storey,3,4,43.5818121,-79.7915016,house,,,"7464 Terragar Blvd, Mississauga"
W3848879,Meadowvale,800000,2017-06-27,Detached,2-Storey,3,3,43.5714311,-79.7578853,house,,,"3185 Chamberlain Crt, Mississauga"
W3849874,Churchill Meadows,915000,2017-06-27,Detached,2-Storey,4,4,43.5432912,-79.740266,house,,,"3909 Mayla Dr, Mississauga"
W3845825,East Credit,1060000,2017-06-27,Detached,2-Storey,4,4,43.5862627,-79.7060276,house,,,"5615 Goldenbrook Dr, Mississauga"
W3847576,Port Credit,1125000,2017-06-27,Detached,2 1/2 Storey,3,1,43.562294,-79.576137,house,,,"8 Tecumseth Ave, Mississauga"
W3850831,Mineola,1295000,2017-06-27,Detached,Bungalow,3,2,43.5641137,-79.5852433,house,,,"1276 Crossfield Bend, Mississauga"
W3842092,Erin Mills,669000,2017-06-27,Semi-Detached,2-Storey,4,2,43.529649,-79.6829776,house,,,"2546 Mainroyal St, Mississauga"
W3849074,Lorne Park,1155000,2017-06-27,Detached,Bungalow,3,2,43.5331885,-79.6359933,house,,,"1583 Wembury Rd, Mississauga"
W3839674,City Centre,313000,2017-06-27,Condo Apt,Apartment,1,1,43.5944944,-79.6351873,condo,530,2805,"60 Absolute Ave, Mississauga"
W3845461,Meadowvale,305000,2017-06-27,Condo Apt,Apartment,2,1,43.579609,-79.7575256,condo,658.19,308,"2900 Battleford Rd, Mississauga"
W3808893,City Centre,330000,2017-06-27,Condo Apt,Apartment,1,1,43.5890216,-79.6309538,condo,425,1610,"3515 Kariya Dr, Mississauga"
W3831803,Hurontario,355000,2017-06-27,Condo Apt,Apartment,2,2,43.613243,-79.6600568,condo,690.59,1016,"35 Trailwood Dr, Mississauga"
W3833389,Meadowvale,420000,2017-06-27,Condo Apt,Apartment,2,2,43.5890831,-79.7514785,condo,661.38,704,"6500 Montevideo Rd, Mississauga"
W3845135,Meadowvale,490000,2017-06-27,Condo Townhouse,2-Storey,3,3,43.5903336,-79.7620303,condo,377.32,1,"6860 Glen Erin Dr, Mississauga"
W3837583,Hurontario,508000,2017-06-27,Condo Townhouse,3-Storey,3,2,43.6037916,-79.6701971,condo,336,37,"460 Bristol Rd, Mississauga"
W3819716,Meadowvale,527500,2017-06-27,Condo Townhouse,2-Storey,3,2,43.572493,-79.7446221,condo,342,17,"2881 Windwood Dr, Mississauga"
W3843539,Erin Mills,292500,2017-06-27,Condo Apt,Apartment,2,1,43.5385633,-79.6873171,condo,530.25,604,"3501 Glen Erin Dr, Mississauga"
W3824837,Port Credit,386000,2017-06-27,Condo Apt,Apartment,2,2,43.5541309,-79.5854996,condo,669.51,203,"15 Elizabeth St, Mississauga"
W3843958,Central Erin Mills,417000,2017-06-27,Condo Apt,Apartment,2,2,43.5530393,-79.7121337,condo,498.76,808,"4900 Glen Erin Dr, Mississauga"
W3851339,Churchill Meadows,485000,2017-06-27,Condo Townhouse,Stacked Townhse,2,3,43.5364473,-79.7327725,condo,240.09,93,"5050 Intrepid Dr, Mississauga"
W3824531,Clarkson,485000,2017-06-27,Condo Townhouse,2-Storey,3,3,43.5013378,-79.6508365,condo,296,15,"2687 Bromsgrove Rd, Mississauga"
W3853195,Central Erin Mills,485000,2017-06-27,Condo Apt,Apartment,2,2,43.5525463,-79.7123564,condo,523,1809,"4850 Glen Erin Dr, Mississauga"
W3790144,Clarkson,585000,2017-06-27,Condo Townhouse,2-Storey,3,3,43.5147097,-79.6310713,condo,415.09,19,"1180 Walden Circ, Mississauga"
W3850162,Malton,827500,2017-06-26,Detached,Bungalow,4,4,43.7264213,-79.6341568,house,,,"3742 Teeswater Rd, Mississauga"
W3841908,Churchill Meadows,828000,2017-06-26,Semi-Detached,2-Storey,4,4,43.5396981,-79.7313268,house,,,"5073 Churchill Meadows Blvd, Mississauga"
W3847829,Meadowvale,635000,2017-06-26,Detached,2-Storey,3,3,43.5774499,-79.7579109,house,,,"6488 Tisler Cres, Mississauga"
W3841276,Fairview,751100,2017-06-26,Detached,Bungalow,3,2,43.5863288,-79.6365518,house,,,"3542 Palgrave Rd, Mississauga"
W3834950,Mississauga Valleys,890000,2017-06-26,Detached,Bungalow,3,2,43.6026645,-79.6175267,house,,,"980 Mississauga Valley Blvd, Mississauga"
W3848186,Lorne Park,1630000,2017-06-26,Detached,2-Storey,4,3,43.5441624,-79.6009616,house,,,"685 Merlot Crt, Mississauga"
W3849476,Clarkson,952500,2017-06-26,Detached,2-Storey,3,3,43.5171414,-79.6399208,house,,,"1348 Canford Cres, Mississauga"
W3840826,Meadowvale,285000,2017-06-26,Condo Apt,Apartment,1,1,43.5860059,-79.7601356,condo,409.03,503,"6720 Glen Erin Dr, Mississauga"
W3845874,Cooksville,317000,2017-06-26,Condo Apt,Apartment,1,1,43.5799964,-79.6249583,condo,594.39,1514,"155 Hillcrest Ave, Mississauga"
W3814562,City Centre,345000,2017-06-26,Condo Apt,Apartment,1,1,43.5877598,-79.6457366,condo,474.31,2706,"4080 Living Arts Dr, Mississauga"
W3845433,Fairview,375000,2017-06-26,Condo Apt,Apartment,1,1,43.5885461,-79.6315999,condo,409.01,2707,"3525 Kariya Dr, Mississauga"
W3839120,City Centre,423000,2017-06-26,Condo Apt,Apartment,2,2,43.5871334,-79.641255,condo,586.75,2901,"3880 Duke Of York Blvd, Mississauga"
W3816131,Fairview,450000,2017-06-26,Condo Apt,Apartment,2,2,43.5890216,-79.6309538,condo,633.29,907,"3515 Kariya Dr, Mississauga"
W3851005,Erindale,546000,2017-06-26,Condo Townhouse,2-Storey,3,4,43.5631148,-79.6379462,condo,396.41,67,"830 Stainton Dr, Mississauga"
W3846575,Churchill Meadows,642000,2017-06-25,Att/Row/Twnhouse,2-Storey,3,3,43.5556899,-79.7575431,house,,,"3956 Coachman Circ, Mississauga"
W3833483,Rathwood,655000,2017-06-25,Semi-Detached,2-Storey,3,2,43.6015296,-79.6395228,house,,,"93 Chalfield Lane, Mississauga"
W3833679,Mississauga Valleys,710000,2017-06-25,Semi-Detached,Bungalow-Raised,3,2,43.5917314,-79.6203968,house,,,"3374 Acala Cres, Mississauga"
W3849816,Lisgar,709000,2017-06-25,Semi-Detached,2-Storey,3,4,43.5845829,-79.7911991,house,,,"7435 Russian Olive Clse, Mississauga"
W3828670,Hurontario,835000,2017-06-25,Detached,2-Storey,4,3,43.6154445,-79.6415799,house,,,"4784 Owl Circ, Mississauga"
W3840629,Mineola,998000,2017-06-25,Detached,2-Storey,3,3,43.5778163,-79.5883061,house,,,"1630 Ewald Rd, Mississauga"
W3847830,Port Credit,990000,2017-06-25,Duplex,2-Storey,6,3,43.5427925,-79.5973537,house,,,"19 Broadview Ave, Mississauga"
W3853405,Clarkson,730000,2017-06-25,Detached,Bungalow,3,2,43.5239879,-79.6423254,house,,,"1942 Deanhome Rd, Mississauga"
W3816227,Erin Mills,1575000,2017-06-25,Detached,2-Storey,4,5,43.53328121,-79.7025758,house,,,"3715 St. Laurent Crt, Mississauga"
W3820199,Malton,468500,2017-06-25,Condo Townhouse,2-Storey,3,3,43.7242545,-79.636758,condo,272,54,"3600 Morning Star Dr, Mississauga"
W3819216,Malton,460000,2017-06-25,Condo Townhouse,2-Storey,3,2,43.721794,-79.643549,condo,230,16,"7440 Goreway Dr, Mississauga"
W3838896,Cooksville,230000,2017-06-25,Condo Apt,Apartment,1,1,43.5806524,-79.6183006,condo,456.67,605,"25 Agnes St, Mississauga"
W3840977,Cooksville,280000,2017-06-25,Condo Apt,Apartment,1,1,43.5802329,-79.6241531,condo,365.37,616,"145 Hillcrest Ave, Mississauga"
W3828508,Cooksville,309000,2017-06-25,Condo Apt,Apartment,1,1,43.5799964,-79.6249583,condo,552.33,707,"155 Hillcrest Ave, Mississauga"
W3843881,City Centre,442500,2017-06-25,Condo Apt,Apartment,2,2,43.5859906,-79.6419251,condo,638.36,1907,"325 Webb Dr, Mississauga"
W3834063,Churchill Meadows,449000,2017-06-25,Condo Apt,Apartment,2,2,43.5512096,-79.7209956,condo,322,208,"5100 Winston Churchill Blvd, Mississauga"
W3842219,Churchill Meadows,500000,2017-06-25,Condo Townhouse,Stacked Townhse,2,3,43.5588621,-79.7372346,condo,219.41,3,"5615 Oscar Peterson Blvd, Mississauga"
W3845555,Meadowvale,650000,2017-06-24,Detached,2-Storey,3,2,43.5703861,-79.7554572,house,,,"3156 Mccarron Cres, Mississauga"
W3822826,East Credit,620000,2017-06-24,Att/Row/Twnhouse,2-Storey,3,3,43.6072705,-79.703074,house,,,"6100 Rowers Cres, Mississauga"
W3832680,Erin Mills,1175000,2017-06-24,Detached,2-Storey,4,3,43.5450605,-79.6916575,house,,,"4020 Rolling Valley Dr, Mississauga"
W3840521,Sheridan,895000,2017-06-24,Detached,2-Storey,3,4,43.5251195,-79.6642669,house,,,"2353 Corsica Crt, Mississauga"
W3837506,Cooksville,225000,2017-06-24,Condo Apt,Apartment,1,1,43.5850185,-79.6167717,condo,580,210,"3120 Kirwin Ave, Mississauga"
W3849213,Cooksville,880000,2017-06-23,Detached,Bungalow,3,3,43.5805882,-79.6043812,house,,,"2377 Edenhurst Dr, Mississauga"
W3842493,Applewood,840000,2017-06-23,Detached,2-Storey,3,3,43.624605,-79.5959574,house,,,"3594 Chiplow Rd, Mississauga"
W3832371,Cooksville,900000,2017-06-23,Detached,Bungalow-Raised,3,2,43.5792254,-79.59104,house,,,"445 Selsey Dr, Mississauga"
W3842004,Creditview,945000,2017-06-23,Detached,2-Storey,4,4,43.5835871,-79.647734,house,,,"476 Wallenberg Cres, Mississauga"
W3851888,Clarkson,648000,2017-06-23,Semi-Detached,Backsplit 4,3,2,43.5066833,-79.6473846,house,,,"2537 Selord Crt, Mississauga"
W3853188,Clarkson,749000,2017-06-23,Detached,2-Storey,4,3,43.5039998,-79.6479553,house,,,"2563 Bromsgrove Rd, Mississauga"
W3847821,Clarkson,741200,2017-06-23,Detached,2-Storey,4,4,43.525758,-79.6171915,house,,,"1419 Lefkas Crt, Mississauga"
W3849481,Clarkson,1730000,2017-06-23,Detached,2-Storey,5,3,43.5151653,-79.6051886,house,,,"1328 Watersedge Rd, Mississauga"
W3833250,Cooksville,323000,2017-06-23,Condo Apt,Apartment,2,2,43.5711331,-79.6023123,condo,805,# 602,"2091 Hurontario St, Mississauga"
W3851710,Meadowvale,325000,2017-06-23,Condo Apt,Apartment,2,1,43.5767873,-79.7391205,condo,647.96,506,"2665 Windwood Dr, Mississauga"
W3805895,Cooksville,338000,2017-06-23,Condo Apt,Apartment,1,1,43.5809431,-79.6239362,condo,548.27,501,"115 Hillcrest Ave, Mississauga"
W3815036,City Centre,355000,2017-06-23,Condo Apt,Apartment,1,1,43.5898543,-79.6349476,condo,594.69,Ph2,"3605 Kariya Dr, Mississauga"
W3836960,City Centre,775000,2017-06-23,Condo Apt,Apartment,2,3,43.5871334,-79.641255,condo,984.98,2707,"3880 Duke Of York Blvd, Mississauga"
W3850153,Clarkson,832000,2017-06-23,Condo Townhouse,2-Storey,2,4,43.5142989,-79.6316631,condo,425.93,72,"1200 Walden Circ, Mississauga"
W3836422,Port Credit,1290000,2017-06-23,Condo Townhouse,3-Storey,4,5,43.5549967,-79.5810632,condo,640,,"10 St Lawrence Dr, Mississauga"
W3820250,Malton,780000,2017-06-22,Detached,Bungalow-Raised,3,3,43.7248778,-79.6289152,house,,,"7201 Madiera Rd, Mississauga"
W3845842,Meadowvale Village,803000,2017-06-22,Semi-Detached,2-Storey,4,4,43.6340121,-79.7251985,house,,,"803 Othello Crt, Mississauga"
W3833273,Meadowvale Village,1006000,2017-06-22,Detached,2-Storey,4,3,43.6329468,-79.7148932,house,,,"6556 Western Skies Way, Mississauga"
W3838170,Lisgar,667000,2017-06-22,Semi-Detached,2-Storey,3,4,43.5758323,-79.7805284,house,,,"6789 Bansbridge Cres, Mississauga"
W3838162,Hurontario,731000,2017-06-22,Detached,2-Storey,3,3,43.6149477,-79.6386834,house,,,"471 Petawawa Cres, Mississauga"
W3847482,Hurontario,675000,2017-06-22,Att/Row/Twnhouse,2-Storey,3,3,43.6220743,-79.6490258,house,,,"564 Lumberton Cres, Mississauga"
W3844084,Hurontario,780000,2017-06-22,Detached,2-Storey,3,3,43.613692,-79.6420921,house,,,"4630 Moccasin Tr, Mississauga"
W3848563,Erindale,780000,2017-06-22,Detached,Backsplit 3,3,2,43.5592234,-79.6515733,house,,,"1203 Fairdale Dr, Mississauga"
W3830303,Erin Mills,830000,2017-06-22,Detached,2-Storey,4,3,43.5509209,-79.6952256,house,,,"2528 Folkway Dr, Mississauga"
W3848337,Erin Mills,920000,2017-06-22,Detached,2-Storey,4,3,43.5429109,-79.7031947,house,,,"4205 Taffey Cres, Mississauga"
W3797683,Rathwood,960000,2017-06-22,Detached,Bungalow,3,2,43.6006491,-79.6306667,house,,,"4083 Woodington Dr, Mississauga"
W3815398,Lakeview,1030000,2017-06-22,Detached,1 1/2 Storey,4,4,43.5938659,-79.5741972,house,,,"1972 Russett Rd, Mississauga"
W3851521,Lisgar,1237500,2017-06-22,Detached,2-Storey,4,6,43.5705525,-79.7781658,house,,,"6712 Lisgar Dr, Mississauga"
W3814462,Sheridan,1225000,2017-06-22,Detached,2-Storey,4,4,43.5362269,-79.6635112,house,,,"2730 Hammond Rd, Mississauga"
W3839836,Mineola,1450000,2017-06-22,Detached,2-Storey,4,4,43.5677706,-79.5950392,house,,,"128 Glenview Dr, Mississauga"
W3851121,Clarkson,1351000,2017-06-22,Detached,2-Storey,4,3,43.5144037,-79.6170559,house,,,"1701 Missenden Cres, Mississauga"
W3839549,Malton,460000,2017-06-22,Condo Townhouse,2-Storey,3,3,43.724006,-79.647084,condo,264,#15,"7560 Goreway Dr, Mississauga"
W3839872,Cooksville,275000,2017-06-22,Condo Townhouse,Apartment,1,1,43.5705026,-79.6302246,condo,255.93,149,"601 Shoreline Dr, Mississauga"
W3835557,Applewood,259000,2017-06-22,Condo Apt,Apartment,2,1,43.6087728,-79.5880682,condo,474,306,"3065 Queen Frederica Dr, Mississauga"
W3843839,Applewood,290000,2017-06-22,Condo Townhouse,2-Storey,3,2,43.602466,-79.5936534,condo,732.59,294,"3060 Constitution Blvd, Mississauga"
W3820449,Cooksville,295000,2017-06-22,Condo Apt,Apartment,3,2,43.5733121,-79.6124653,condo,750,#704,"2345 Confederation Pkwy, Mississauga"
W3836767,City Centre,325000,2017-06-22,Condo Apt,Apartment,1,1,43.5895325,-79.6523159,condo,0,1711,"339 Rathburn Rd, Mississauga"
W3834941,Hurontario,337500,2017-06-22,Condo Apt,Apartment,1,1,43.6048834,-79.6511149,condo,472.13,214,"35 Kingsbridge Garden Circ, Mississauga"
W3837770,City Centre,363000,2017-06-22,Condo Apt,Apartment,1,1,43.586471,-79.6479597,condo,477,1001,"4099 Brickstone Mews, Mississauga"
W3847416,Hurontario,385000,2017-06-22,Condo Apt,Apartment,1,1,43.6061496,-79.6545448,condo,389.7,1008,"75 Eglinton Ave, Mississauga"
W3826320,City Centre,370000,2017-06-22,Condo Apt,Apartment,1,1,43.5897248,-79.6489722,condo,372,3010,"360 Square One Dr, Mississauga"
W3774338,City Centre,384000,2017-06-22,Condo Apt,Apartment,1,1,43.5922739,-79.6343106,condo,450,3305,"208 Enfield Pl, Mississauga"
W3845962,Applewood,399900,2017-06-22,Condo Townhouse,2-Storey,3,2,43.6031273,-79.5919492,condo,526.83,144,"3040 Constitution Blvd, Mississauga"
W3841911,Meadowvale,434600,2017-06-22,Condo Townhouse,2-Storey,3,1,43.5909396,-79.7645603,condo,355.04,117,"2779 Gananoque Dr, Mississauga"
W3839597,City Centre,435000,2017-06-22,Condo Apt,Apartment,2,2,43.5896112,-79.6304348,condo,687.55,2005,"3504 Hurontario St, Mississauga"
W3839010,Hurontario,450000,2017-06-22,Condo Apt,Apartment,3,2,43.6009781,-79.6482142,condo,852.07,1604,"4460 Tucana Crt, Mississauga"
W3842311,Meadowvale,493000,2017-06-22,Condo Townhouse,2-Storey,2,3,43.5795889,-79.7536869,condo,335.98,25,"5610 Montevideo Rd, Mississauga"
W3841551,Meadowvale,505000,2017-06-22,Condo Townhouse,3-Storey,3,2,43.5794007,-79.7500577,condo,310,33,"5878 Montevideo Rd, Mississauga"
W3838729,Hurontario,539000,2017-06-22,Condo Townhouse,3-Storey,3,3,43.6112156,-79.6611584,condo,119,79,"80 Strathaven Dr, Mississauga"
W3828189,Streetsville,675000,2017-06-22,Condo Townhouse,3-Storey,3,3,43.5796943,-79.731672,condo,296.6,60,"2398 Britannia Rd, Mississauga"
W3839591,Churchill Meadows,305000,2017-06-22,Condo Apt,Apartment,1,1,43.5475616,-79.7211055,condo,183.96,110,"5035 Oscar Peterson Blvd, Mississauga"
W3808914,Clarkson,295000,2017-06-22,Condo Apt,2-Storey,2,2,43.5089078,-79.6257734,condo,657.88,36,"2001 Bonnymede Dr, Mississauga"
W3835625,Churchill Meadows,600000,2017-06-22,Condo Townhouse,2-Storey,3,3,43.5597152,-79.7396046,condo,346,14,"3335 Thomas St, Mississauga"
W3813940,Applewood,700000,2017-06-21,Semi-Detached,Backsplit 4,4,2,43.6274282,-79.5963254,house,,,"1647 Glen Rutley Circ, Mississauga"
W3820485,Lisgar,780000,2017-06-21,Detached,2-Storey,3,3,43.5781032,-79.7903422,house,,,"3754 Althorpe Circ, Mississauga"
W3850541,Erin Mills,799900,2017-06-21,Detached,2-Storey,3,2,43.5525708,-79.6837759,house,,,"4224 Wheelwright Cres, Mississauga"
W3813113,Lakeview,835000,2017-06-21,Semi-Detached,2-Storey,3,2,43.5964273,-79.5771156,house,,,"1178 Meander Crt, Mississauga"
W3839384,Lisgar,830000,2017-06-21,Detached,3-Storey,4,4,43.5680251,-79.7718804,house,,,"6569 Cedar Rapids Cres, Mississauga"
W3788889,Lakeview,825000,2017-06-21,Detached,Bungalow,2,1,43.576918,-79.5627229,house,,,"948 Third St, Mississauga"
W3844687,East Credit,888000,2017-06-21,Detached,2-Storey,4,5,43.5922033,-79.7008446,house,,,"5652 Dawlish Cres, Mississauga"
W3842474,Meadowvale Village,920000,2017-06-21,Detached,2-Storey,4,4,43.6152645,-79.7509799,house,,,"1839 Bridlington Crt, Mississauga"
W3840510,Lisgar,915000,2017-06-21,Detached,2-Storey,4,3,43.5679235,-79.7646556,house,,,"3433 Nutcracker Dr, Mississauga"
W3827291,Cooksville,1082500,2017-06-21,Detached,Sidesplit 4,3,3,43.5813781,-79.5934938,house,,,"450 Tedwyn Dr, Mississauga"
W3847963,Streetsville,1150000,2017-06-21,Detached,Bungalow,0,2,43.5851058,-79.7187353,house,,,"66 Queen St, Mississauga"
W3833987,East Credit,1130000,2017-06-21,Detached,2-Storey,4,4,43.5747535,-79.6767145,house,,,"4734 Crystal Rose Dr, Mississauga"
W3825883,Churchill Meadows,1210000,2017-06-21,Detached,2-Storey,4,4,43.5401193,-79.7177315,house,,,"3275 Angel Pass Dr, Mississauga"
W3833627,Erin Mills,938065,2017-06-21,Detached,2-Storey,4,3,43.5340318,-79.7065182,house,,,"4065 Farnsworth Cres, Mississauga"
W3835262,Malton,442000,2017-06-21,Condo Townhouse,2-Storey,3,2,43.724006,-79.647084,condo,265.3,#35,"7560 Goreway Dr, Mississauga"
W3846304,City Centre,340000,2017-06-21,Condo Apt,Apartment,1,1,43.5859356,-79.6471487,condo,461.02,801,"4065 Brickstone Mews, Mississauga"
W3824413,City Centre,353000,2017-06-21,Condo Apt,Apartment,1,1,43.5816391,-79.648193,condo,334,1909,"3985 Grand Park Dr, Mississauga"
W3832027,City Centre,365000,2017-06-21,Comm Element Condo,Apartment,1,1,43.5864613,-79.6470138,condo,479.42,4508,"4070 Confederation Pkwy, Mississauga"
W3832040,City Centre,375000,2017-06-21,Condo Apt,Apartment,1,1,43.5881453,-79.6480628,condo,400.17,209,"388 Prince Of Wales Dr, Mississauga"
W3817060,City Centre,389000,2017-06-21,Condo Apt,Apartment,2,1,43.5885461,-79.6315999,condo,452.64,,"3525 Kariya Dr, Mississauga"
W3845265,City Centre,395000,2017-06-21,Condo Apt,Apartment,2,2,43.5904687,-79.6357942,condo,542.28,2107,"285 Enfield Pl, Mississauga"
W3841805,City Centre,385000,2017-06-21,Condo Apt,Apartment,2,4,43.5956374,-79.6348433,condo,569.94,609,"80 Absolute Ave, Mississauga"
W3845237,Hurontario,415000,2017-06-21,Condo Apt,Apartment,2,2,43.6009781,-79.6482142,condo,852.07,1403,"4460 Tucana Crt, Mississauga"
W3823801,City Centre,400000,2017-06-21,Condo Apt,Apartment,2,2,43.5871334,-79.641255,condo,505,905,"3880 Duke Of York Blvd, Mississauga"
W3799792,Meadowvale,495000,2017-06-21,Condo Townhouse,3-Storey,2,2,43.5844319,-79.7573012,condo,130,,"6860 Meadowvale Town Cent Circ, Mississauga"
W3836777,Meadowvale,600000,2017-06-21,Condo Townhouse,2-Storey,4,3,43.579534,-79.755849,condo,322.67,49,"6520 Corfu Rd, Mississauga"
W3829318,Churchill Meadows,459000,2017-06-21,Condo Townhouse,Stacked Townhse,2,2,43.546467,-79.7188277,condo,203.55,238,"4975 Southampton Dr, Mississauga"
W3840985,Clarkson,468000,2017-06-21,Condo Apt,Apartment,1,2,43.5126988,-79.6311685,condo,463.63,#913,"1055 Southdown Rd, Mississauga"
W3831685,Erin Mills,680000,2017-06-21,Condo Apt,Apartment,2,2,43.5433846,-79.6658212,condo,894.26,512,"1700 The Collegeway , Mississauga"
W3807718,Port Credit,725000,2017-06-21,Condo Apt,Apartment,2,2,43.5559675,-79.5821171,condo,706.66,612,"1 Hurontario St, Mississauga"
W3836577,Lisgar,580000,2017-06-20,Att/Row/Twnhouse,2-Storey,4,3,43.5739079,-79.7845329,house,,,"3911 Zenith Crt, Mississauga"
W3838835,Erindale,610000,2017-06-20,Semi-Detached,Bungalow,3,2,43.5600346,-79.6591723,house,,,"1316 Erinmore Dr, Mississauga"
W3839440,Churchill Meadows,675000,2017-06-20,Att/Row/Twnhouse,2-Storey,4,3,43.5365214,-79.7345975,house,,,"3999 Stardust Dr, Mississauga"
W3823220,Applewood,640000,2017-06-20,Semi-Detached,Backsplit 4,3,2,43.6101813,-79.598373,house,,,"3310 Media Crt, Mississauga"
W3846207,Churchill Meadows,696800,2017-06-20,Att/Row/Twnhouse,3-Storey,3,4,43.5432142,-79.7228779,house,,,"3415 Southwick St, Mississauga"
W3841490,Rathwood,740000,2017-06-20,Detached,2-Storey,3,3,43.6263164,-79.6032002,house,,,"1194 Bough Beeches Blvd, Mississauga"
W3840514,Meadowvale,789900,2017-06-20,Detached,Sidesplit 4,3,2,43.5791557,-79.7419077,house,,,"2639 Inlake Crt, Mississauga"
W3840789,Fairview,785000,2017-06-20,Semi-Detached,2-Storey,3,3,43.5743336,-79.643143,house,,,"614 Summer Park Cres, Mississauga"
W3826630,East Credit,805000,2017-06-20,Semi-Detached,2-Storey,4,3,43.5886374,-79.6655492,house,,,"852 Bethany Cres, Mississauga"
W3820577,East Credit,811000,2017-06-20,Detached,2-Storey,3,4,43.5934894,-79.6974104,house,,,"5757 Sidmouth St, Mississauga"
W3801151,Creditview,988888,2017-06-20,Detached,2-Storey,4,4,43.5834834,-79.6493303,house,,,"514 Turnbridge Rd, Mississauga"
W3805823,East Credit,1110000,2017-06-20,Detached,2-Storey,4,5,43.5924758,-79.6826142,house,,,"1030 Windsor Hill Blvd, Mississauga"
W3814771,Central Erin Mills,1699900,2017-06-20,Detached,2-Storey,4,4,43.5734242,-79.6993755,house,,,"1870 Sara St, Mississauga"
W3774250,Mineola,3200000,2017-06-20,Detached,Backsplit 4,4,4,43.5561095,-79.606299,house,,,"1530 Pinetree Cres, Mississauga"
W3842406,Hurontario,395000,2017-06-20,Condo Townhouse,Stacked Townhse,2,1,43.6162879,-79.6640101,condo,469.3,96,"55 Bristol Rd, Mississauga"
W3832989,Hurontario,338000,2017-06-20,Condo Apt,Apartment,2,2,43.613243,-79.6600568,condo,715.28,1017,"35 Trailwood Dr, Mississauga"
W3824158,Hurontario,372000,2017-06-20,Condo Apt,Apartment,2,2,43.6107204,-79.6593191,condo,468.75,215,"55 Strathaven Dr, Mississauga"
W3808047,Cooksville,365000,2017-06-20,Condo Apt,Apartment,3,1,43.573909,-79.619437,condo,729.77,1001,"2556 Argyle Rd, Mississauga"
W3802523,City Centre,375000,2017-06-20,Condo Apt,Apartment,1,1,43.5859356,-79.6471487,condo,451.12,1603,"4065 Brickstone Mews, Mississauga"
W3818547,City Centre,400000,2017-06-20,Condo Apt,Apartment,1,2,43.5885329,-79.6404578,condo,527.93,2907,"220 Burnhamthorpe Rd, Mississauga"
W3822878,City Centre,423000,2017-06-20,Condo Apt,Apartment,2,2,43.5859906,-79.6419251,condo,630.88,511,"325 Webb Dr, Mississauga"
W3826373,City Centre,410000,2017-06-20,Condo Apt,Apartment,2,2,43.5877598,-79.6457366,condo,619.77,607,"4080 Living Arts Dr, Mississauga"
W3802447,Streetsville,403000,2017-06-20,Condo Townhouse,2-Storey,3,2,43.604212,-79.7313332,condo,389.58,101,"6540 Falconer Dr, Mississauga"
W3812648,City Centre,440000,2017-06-20,Condo Apt,Apartment,2,2,43.5874086,-79.6392153,condo,634.87,911,"250 Webb Dr, Mississauga"
W3827383,Mississauga Valleys,432000,2017-06-20,Condo Apt,Apartment,2,2,43.593603,-79.6332757,condo,1009,307,"3650 Kaneff Cres, Mississauga"
W3801092,City Centre,486000,2017-06-20,Condo Apt,Apartment,2,2,43.5878519,-79.6398442,condo,607.93,2807,"225 Webb Dr, Mississauga"
W3839745,Cooksville,561000,2017-06-20,Condo Townhouse,2-Storey,2,2,43.5707551,-79.6283641,condo,253.25,6,"3020 Clayhill Rd, Mississauga"
W3810059,Rathwood,475000,2017-06-20,Condo Townhouse,2-Storey,3,4,43.6426853,-79.5920701,condo,486.11,147,"2120 Rathburn Rd, Mississauga"
W3825116,Hurontario,580000,2017-06-20,Condo Apt,Apartment,3,2,43.6048834,-79.6511149,condo,842.44,703,"35 Kingsbridge Garden Circ, Mississauga"
W3824802,Central Erin Mills,570000,2017-06-20,Condo Townhouse,2-Storey,3,3,43.569493,-79.717716,condo,308,130,"5260 Mcfarren Blvd, Mississauga"
W3833924,Lakeview,700000,2017-06-20,Condo Apt,Apartment,2,2,43.5913257,-79.5609874,condo,1110.93,115,"1400 Dixie Rd, Mississauga"
W3834384,Sheridan,525750,2017-06-20,Condo Townhouse,2-Storey,3,4,43.5259339,-79.6745193,condo,420.33,52,"2605 Woodchester Dr, Mississauga"
W3826628,Malton,630000,2017-06-19,Semi-Detached,Bungalow-Raised,3,3,43.7139024,-79.6444927,house,,,"7275 Reindeer Dr, Mississauga"
W3841432,Malton,653000,2017-06-19,Semi-Detached,Backsplit 4,3,2,43.7168492,-79.6530576,house,,,"3095 Mallbridge Cres, Mississauga"
W3833865,Meadowvale Village,655000,2017-06-19,Semi-Detached,2-Storey,3,3,43.6276876,-79.7055218,house,,,"6488 Skipper Way, Mississauga"
W3842811,Applewood,745000,2017-06-19,Semi-Detached,2-Storey,4,2,43.6291077,-79.5945494,house,,,"1725 Pickmere Crt, Mississauga"
W3837698,Erindale,652000,2017-06-19,Semi-Detached,2-Storey,4,3,43.562987,-79.6540124,house,,,"1132 Shadeland Dr, Mississauga"
W3830048,East Credit,681000,2017-06-19,Att/Row/Twnhouse,2-Storey,3,3,43.6017985,-79.7100804,house,,,"1315 Killaby Dr, Mississauga"
W3825871,Lisgar,687000,2017-06-19,Semi-Detached,2-Storey,3,3,43.5836388,-79.7927298,house,,,"7331 Cork Tree Row, Mississauga"
W3826218,East Credit,680000,2017-06-19,Semi-Detached,2-Storey,3,3,43.5958174,-79.6873638,house,,,"1117 Foxglove Pl, Mississauga"
W3845997,Churchill Meadows,720000,2017-06-19,Att/Row/Twnhouse,2-Storey,3,4,43.5413615,-79.7155741,house,,,"3192 Angel Pass Dr, Mississauga"
W3823690,Churchill Meadows,715000,2017-06-19,Semi-Detached,2-Storey,3,4,43.5387743,-79.7186637,house,,,"3348 Angel Pass Dr, Mississauga"
W3804735,Lisgar,710000,2017-06-19,Semi-Detached,2-Storey,3,4,43.5779732,-79.7803804,house,,,"6963 Chilcot Crt, Mississauga"
W3817893,Churchill Meadows,750000,2017-06-19,Semi-Detached,2-Storey,4,3,43.5591634,-79.7532836,house,,,"5700 Margarita Cres, Mississauga"
W3818496,Hurontario,722000,2017-06-19,Att/Row/Twnhouse,2-Storey,3,3,43.61793,-79.6418484,house,,,"554 Candlestick Circ, Mississauga"
W3842477,Churchill Meadows,755000,2017-06-19,Semi-Detached,2-Storey,3,4,43.5551744,-79.7403633,house,,,"3470 Fountain Park Ave, Mississauga"
W3833557,Mississauga Valleys,793000,2017-06-19,Detached,2-Storey,4,2,43.5902385,-79.6152535,house,,,"419 Mississauga Valley Blvd, Mississauga"
W3840423,Hurontario,880000,2017-06-19,Detached,2-Storey,4,3,43.6071164,-79.6603053,house,,,"118 Ceremonial Dr, Mississauga"
W3805884,Erin Mills,818000,2017-06-19,Detached,Backsplit 4,3,2,43.5360163,-79.6780148,house,,,"3202 Hornbeam Cres, Mississauga"
W3824052,Streetsville,850000,2017-06-19,Detached,2-Storey,3,3,43.5798628,-79.7276981,house,,,"5917 Shandwick Pl, Mississauga"
W3843960,Erindale,935000,2017-06-19,Detached,Sidesplit 3,3,2,43.5465475,-79.6503601,house,,,"2563 Proudfoot St, Mississauga"
W3834560,East Credit,870000,2017-06-19,Detached,2-Storey,3,3,43.5715369,-79.6823291,house,,,"4242 Credit Pointe Dr, Mississauga"
W3810738,Central Erin Mills,1260000,2017-06-19,Detached,2-Storey,4,4,43.5639816,-79.6957179,house,,,"1814 The Chase , Mississauga"
W3843328,Clarkson,599000,2017-06-19,Semi-Detached,Backsplit 4,4,2,43.5074386,-79.6597344,house,,,"1773 Sandgate Cres, Mississauga"
W3831294,Erin Mills,681000,2017-06-19,Att/Row/Twnhouse,2-Storey,4,3,43.5225197,-79.7025065,house,,,"3430 Fenwick Cres, Mississauga"
W3831136,Sheridan,730000,2017-06-19,Detached,Backsplit 3,4,3,43.5281212,-79.6625249,house,,,"2387 Del Fiore Dr, Mississauga"
W3839692,Clarkson,807000,2017-06-19,Detached,Bungalow,3,2,43.5152251,-79.6396268,house,,,"1300 Epton Cres, Mississauga"
W3821517,Clarkson,815000,2017-06-19,Detached,Bungalow,3,2,43.5236778,-79.6440065,house,,,"1998 Davebrook Rd, Mississauga"
W3847038,Lorne Park,1100000,2017-06-19,Detached,2-Storey,3,3,43.5340895,-79.6067347,house,,,"1017 Cutler Crt, Mississauga"
W3841882,Lorne Park,1500000,2017-06-19,Detached,2-Storey,4,3,43.5346433,-79.6125739,house,,,"1105 Fair Birch Dr, Mississauga"
W3846105,Malton,699000,2017-06-19,Detached,Bungalow-Raised,3,2,43.729721,-79.6307065,house,,,"4184 Brandon Gate Dr, Mississauga"
W3837274,Meadowvale,320000,2017-06-19,Condo Apt,Apartment,2,1,43.5860059,-79.7601356,condo,644.7,,"6720 Glen Erin Dr, Mississauga"
W3824709,Applewood,320000,2017-06-19,Condo Townhouse,2-Storey,3,2,43.601638,-79.594333,condo,630.73,315,"3055 Tomken Rd, Mississauga"
W3832611,Cooksville,329000,2017-06-19,Condo Apt,Apartment,2,2,43.573909,-79.619437,condo,634.82,503,"2556 Argyle Rd, Mississauga"
W3829930,City Centre,364000,2017-06-19,Condo Apt,Apartment,1,1,43.5897248,-79.6489722,condo,388,2509,"360 Square One Dr, Mississauga"
W3837019,Mississauga Valleys,380000,2017-06-19,Comm Element Condo,Apartment,2,2,43.5949506,-79.6345102,condo,679.65,310,"70 Absolute Ave, Mississauga"
W3840186,City Centre,368750,2017-06-19,Condo Apt,Apartment,1,1,43.5859356,-79.6471487,condo,466.65,703,"4065 Brickstone Mews, Mississauga"
W3821971,City Centre,400000,2017-06-19,Condo Apt,Apartment,2,2,43.5994944,-79.6377541,condo,756.41,819,"4185 Shipp Dr, Mississauga"
W3839140,City Centre,437500,2017-06-19,Condo Apt,Apartment,2,2,43.586471,-79.6479597,condo,509.51,1208,"4099 Brickstone Mews, Mississauga"
W3837372,Hurontario,425000,2017-06-19,Condo Apt,Apartment,2,2,43.6041638,-79.650315,condo,577.5,916,"25 Kingsbridge Garden Circ, Mississauga"
W3837598,East Credit,450000,2017-06-19,Condo Townhouse,2-Storey,2,2,43.5939932,-79.6842581,condo,166,99,"1050 Bristol Rd, Mississauga"
W3840511,Meadowvale,490423,2017-06-19,Condo Townhouse,2-Storey,3,2,43.5890738,-79.7609191,condo,400.4,9,"6779 Glen Erin Dr, Mississauga"
W3843606,Central Erin Mills,585000,2017-06-19,Condo Townhouse,2-Storey,3,4,43.5727753,-79.7150473,condo,294.06,37,"5525 Palmerston Cres, Mississauga"
W3830788,Erin Mills,325000,2017-06-19,Condo Apt,Apartment,2,1,43.5385633,-79.6873171,condo,469.89,310,"3501 Glen Erin Dr, Mississauga"
W3841777,Clarkson,875000,2017-06-19,Condo Townhouse,2-Storey,3,4,43.5142989,-79.6316631,condo,589.43,50,"1200 Walden Circ, Mississauga"
W3846266,East Credit,613000,2017-06-18,Semi-Detached,2-Storey,3,3,43.6029984,-79.6938937,house,,,"827 Ledbury Cres, Mississauga"
W3837245,Meadowvale,695000,2017-06-18,Detached,2-Storey,3,2,43.5861239,-79.7744038,house,,,"3110 Cambourne Cres, Mississauga"
W3837862,Streetsville,726000,2017-06-18,Semi-Detached,2-Storey,3,2,43.5979044,-79.7280794,house,,,"86 Bow River Cres, Mississauga"
W3840254,Lakeview,755000,2017-06-18,Detached,Bungalow,3,2,43.5877964,-79.577682,house,,,"958 South Service Rd, Mississauga"
W3844073,Meadowvale,735000,2017-06-18,Detached,2-Storey,3,3,43.5914346,-79.7768395,house,,,"7209 Corrine Cres, Mississauga"
W3838759,Meadowvale,860000,2017-06-18,Detached,Bungalow-Raised,3,2,43.5793766,-79.7377598,house,,,"6108 Wabukayne Crt, Mississauga"
W3821385,Erin Mills,755000,2017-06-18,Semi-Detached,2-Storey,3,3,43.5433594,-79.7029604,house,,,"4222 Martlen Cres, Mississauga"
W3845732,Applewood,790000,2017-06-18,Detached,2-Storey,4,3,43.6037097,-79.5958615,house,,,"1018 Sierra Blvd, Mississauga"
W3814025,East Credit,860000,2017-06-18,Detached,2-Storey,4,3,43.5945311,-79.6969372,house,,,"5782 Sidmouth St, Mississauga"
W3811189,Rathwood,975000,2017-06-18,Detached,2-Storey,3,3,43.6032246,-79.6362496,house,,,"4262 Angeloni Dr, Mississauga"
W3839623,East Credit,1050000,2017-06-18,Detached,2-Storey,4,4,43.5839446,-79.7045014,house,,,"5533 Shorecrest Cres, Mississauga"
W3833422,East Credit,1030000,2017-06-18,Detached,2-Storey,4,3,43.5714212,-79.6842241,house,,,"1492 Netherly Crt, Mississauga"
W3832743,Central Erin Mills,1120000,2017-06-18,Detached,2-Storey,4,3,43.5676512,-79.739838,house,,,"5913 Greensboro Dr, Mississauga"
W3839522,Port Credit,1380000,2017-06-18,Detached,Bungalow,2,2,43.5578546,-79.5743528,house,,,"10 Onaway Rd, Mississauga"
W3740332,Sheridan,6100000,2017-06-18,Detached,2-Storey,7,10,43.5410937,-79.6409852,house,,,"2225 Doulton Dr, Mississauga"
W3812046,Clarkson,780000,2017-06-18,Detached,Bungalow-Raised,3,2,43.5081797,-79.6477182,house,,,"1301 Tredmore Dr, Mississauga"
W3842221,Erin Mills,980000,2017-06-18,Detached,2-Storey,4,4,43.5271315,-79.6950374,house,,,"3557 Burgess Cres, Mississauga"
W3832312,Sheridan,1165000,2017-06-18,Detached,2-Storey,4,4,43.5347302,-79.6648307,house,,,"2588 Comet Crt, Mississauga"
W3834105,Malton,341000,2017-06-18,Condo Apt,Apartment,2,2,43.7220164,-79.6423563,condo,355.04,406,"7405 Goreway Dr, Mississauga"
W3834660,Meadowvale,285000,2017-06-18,Condo Apt,Apartment,1,1,43.5860059,-79.7601356,condo,409.03,612,"6720 Glen Erin Dr, Mississauga"
W3819366,Applewood,300000,2017-06-18,Condo Apt,Apartment,2,2,43.6210837,-79.5908252,condo,458,608,"1615 Bloor St, Mississauga"
W3828000,City Centre,297900,2017-06-18,Condo Apt,Apartment,1,1,43.5945004,-79.6323548,condo,499.92,205,"3700 Kaneff Cres, Mississauga"
W3792907,Hurontario,456500,2017-06-18,Condo Apt,Apartment,2,2,43.6041638,-79.650315,condo,577.28,1421,"25 Kingsbridge Garden Circ, Mississauga"
W3828529,Applewood,620000,2017-06-18,Condo Townhouse,3-Storey,3,2,43.6064762,-79.5902218,condo,93,49,"1168 Arena Rd, Mississauga"
W3839282,Erindale,331800,2017-06-18,Condo Apt,2-Storey,1,1,43.5583871,-79.6378607,condo,475.02,609,"1000 Cedarglen Gate, Mississauga"
W3834208,Port Credit,1312500,2017-06-18,Condo Townhouse,2-Storey,3,3,43.5551032,-79.5798769,condo,717,,"57 Compass Way, Mississauga"
W3835834,Meadowvale,604000,2017-06-17,Semi-Detached,Backsplit 4,3,2,43.5969469,-79.7639072,house,,,"7050 Cadiz Cres, Mississauga"
W3835788,Hurontario,640000,2017-06-17,Att/Row/Twnhouse,2-Storey,3,3,43.6076961,-79.6457652,house,,,"4889 James Austin Dr, Mississauga"
W3845037,Erin Mills,735000,2017-06-17,Att/Row/Twnhouse,2-Storey,3,3,43.5431824,-79.6935618,house,,,"2705 Jerring Mews, Mississauga"
W3838572,Mississauga Valleys,725000,2017-06-17,Semi-Detached,Bungalow-Raised,3,2,43.5967692,-79.6081315,house,,,"3210 Candela Dr, Mississauga"
W3816137,Meadowvale Village,715000,2017-06-17,Semi-Detached,2-Storey,3,3,43.6221722,-79.7247571,house,,,"1070 Pepperidge Crossing , Mississauga"
W3836831,Hurontario,746500,2017-06-17,Link,2-Storey,3,3,43.5976112,-79.6768671,house,,,"5332 Richborough Dr, Mississauga"
W3843380,Lisgar,820000,2017-06-17,Detached,2-Storey,4,3,43.584121,-79.7897224,house,,,"7270 Blackwood Mews, Mississauga"
W3819659,East Credit,800000,2017-06-17,Detached,2-Storey,3,3,43.5783958,-79.6735935,house,,,"4488 Violet Rd, Mississauga"
W3832464,City Centre,273000,2017-06-17,Condo Apt,Apartment,0,1,43.5886878,-79.6492378,condo,320.59,2812,"385 Prince Of Wales Dr, Mississauga"
W3819178,Hurontario,355900,2017-06-17,Condo Apt,Apartment,1,1,43.6048834,-79.6511149,condo,495.09,#1701,"35 Kingsbridge Garden Circ, Mississauga"
W3747442,City Centre,355000,2017-06-17,Condo Apt,Apartment,2,2,43.594493,-79.6323462,condo,595.03,2212,"3700 Kaneff Cres, Mississauga"
W3835575,City Centre,415000,2017-06-17,Condo Apt,Apartment,2,2,43.5949506,-79.6345102,condo,811.97,806,"70 Absolute Ave, Mississauga"
W3840615,East Credit,556000,2017-06-17,Condo Townhouse,3-Storey,3,3,43.5939932,-79.6842581,condo,165.1,79,"1050 Bristol Rd, Mississauga"
W3823704,Churchill Meadows,770000,2017-06-16,Semi-Detached,2-Storey,3,4,43.5543472,-79.7413576,house,,,"3524 Fountain Park Ave, Mississauga"
W3835288,East Credit,820000,2017-06-16,Detached,2-Storey,3,4,43.5909284,-79.7006568,house,,,"5628 Taw Ave, Mississauga"
W3844701,Hurontario,933888,2017-06-16,Detached,2-Storey,4,3,43.6081184,-79.6686199,house,,,"5429 Heritage Hills Blvd, Mississauga"
W3827413,East Credit,1055000,2017-06-16,Detached,2-Storey,4,3,43.5986445,-79.7047566,house,,,"5887 O'meara St, Mississauga"
W3835532,Lisgar,1200000,2017-06-16,Detached,2-Storey,4,4,43.5713308,-79.7649924,house,,,"3328 Trelawny Circ, Mississauga"
W3804036,Erin Mills,1100000,2017-06-16,Detached,2-Storey,4,3,43.5367946,-79.6964552,house,,,"3628 Pitch Pine Cres, Mississauga"
W3840574,Cooksville,1815000,2017-06-16,Detached,Bungalow,3,2,43.5650308,-79.6060801,house,,,"222 Harborn Tr, Mississauga"
W3832701,Clarkson,740000,2017-06-16,Detached,Bungalow,3,2,43.5030727,-79.6540935,house,,,"2702 Stockholm Rd, Mississauga"
W3844252,Rathwood,360000,2017-06-16,Condo Apt,Apartment,1,1,43.625848,-79.6081836,condo,499.13,404,"1359 Rathburn Rd, Mississauga"
W3837491,Lakeview,365000,2017-06-16,Condo Apt,Apartment,1,1,43.5913257,-79.5609874,condo,624.96,310,"1400 Dixie Rd, Mississauga"
W3827401,Cooksville,338000,2017-06-16,Condo Apt,Apartment,2,2,43.57362,-79.620458,condo,630.82,406,"2542 Argyle Rd, Mississauga"
W3840818,City Centre,377577,2017-06-16,Condo Apt,Apartment,1,2,43.5908484,-79.6320084,condo,377.17,1904,"33 Elm Dr, Mississauga"
W3811391,Mississauga Valleys,439000,2017-06-16,Condo Apt,Apartment,1,2,43.5914595,-79.6277922,condo,852.27,405,"1580 Mississauga Valley Blvd, Mississauga"
W3800633,City Centre,490000,2017-06-16,Condo Apt,Apartment,2,1,43.5856392,-79.6463896,condo,0,2507,"510 Curran Pl, Mississauga"
W3800868,Hurontario,587000,2017-06-16,Condo Apt,Apartment,2,2,43.6048834,-79.6511149,condo,750.37,,"35 Kingsbridge Garden Circ, Mississauga"
W3827338,Malton,641000,2017-06-15,Detached,Bungalow,3,1,43.7136674,-79.6550582,house,,,"7516 Homeside Gdns, Mississauga"
W3823427,Malton,680000,2017-06-15,Detached,2-Storey,4,3,43.7235968,-79.6356857,house,,,"7319 Dellaport Dr, Mississauga"
W3816532,Meadowvale Village,1295000,2017-06-15,Detached,2-Storey,3,4,43.6304223,-79.7273982,house,,,"907 Gaslight Way, Mississauga"
W3826612,East Credit,640000,2017-06-15,Semi-Detached,2-Storey,3,3,43.5943821,-79.6874656,house,,,"5426 Sweetgrass Gate, Mississauga"
W3832240,Lisgar,735000,2017-06-15,Semi-Detached,2-Storey,3,4,43.5793072,-79.7916707,house,,,"3800 Milkwood Cres, Mississauga"
W3839587,Hurontario,861000,2017-06-15,Detached,2-Storey,3,3,43.607288,-79.6610021,house,,,"125 Ceremonial Dr, Mississauga"
W3822003,Churchill Meadows,1250000,2017-06-15,Detached,2-Storey,4,4,43.5564061,-79.7322736,house,,,"5497 Oscar Peterson Blvd, Mississauga"
W3843372,Lorne Park,1575000,2017-06-15,Detached,2-Storey,4,3,43.5429618,-79.6166252,house,,,"976 Cresthampton Lane, Mississauga"
W3841462,Lorne Park,1840000,2017-06-15,Detached,2-Storey,4,4,43.5478376,-79.5992699,house,,,"1171 Sienna St, Mississauga"
W3841680,Clarkson,1400000,2017-06-15,Detached,1 1/2 Storey,4,3,43.5153712,-79.612566,house,,,"1595 Green Glade , Mississauga"
W3831945,Cooksville,320000,2017-06-15,Condo Apt,Apartment,1,1,43.5808529,-79.6255422,condo,423.83,1501,"135 Hillcrest Ave, Mississauga"
W3820637,City Centre,370000,2017-06-15,Condo Apt,Apartment,1,1,43.5922739,-79.6343106,condo,450,2805,"208 Enfield Pl, Mississauga"
W3807931,City Centre,335000,2017-06-15,Condo Apt,Apartment,2,2,43.5910679,-79.6356066,condo,522.28,706,"265 Enfield Pl, Mississauga"
W3841007,City Centre,346125,2017-06-15,Condo Apt,Apartment,1,1,43.5862105,-79.6429298,condo,389,2806,"330 Burnhamthrope Rd, Mississauga"
W3827236,City Centre,342000,2017-06-15,Condo Apt,Apartment,2,2,43.5904687,-79.6357942,condo,536,1611,"285 Enfield Pl, Mississauga"
W3834483,Cooksville,389900,2017-06-15,Condo Apt,Apartment,3,2,43.5804314,-79.613175,condo,925.39,1805,"75 King St, Mississauga"
W3824753,City Centre,385000,2017-06-15,Condo Apt,Apartment,1,2,43.5877493,-79.6457846,condo,532.72,#2009,"4090 Living Arts Dr, Mississauga"
W3801916,Creditview,405000,2017-06-15,Condo Apt,Apartment,2,1,43.58945,-79.6521712,condo,546.77,203,"335 Rathburn Rd, Mississauga"
W3810367,City Centre,430000,2017-06-15,Condo Apt,Apartment,2,2,43.5896112,-79.6304348,condo,644.74,902,"3504 Hurontario St, Mississauga"
W3846434,City Centre,445000,2017-06-15,Condo Apt,Apartment,2,2,43.5881026,-79.6407535,condo,664,1209,"3939 Duke Of York Blvd, Mississauga"
W3814254,Hurontario,465000,2017-06-15,Condo Apt,Apartment,2,2,43.6061403,-79.6542717,condo,520.44,704,"55 Eglinton Ave, Mississauga"
W3814160,City Centre,448000,2017-06-15,Condo Apt,Apartment,2,2,43.5874086,-79.6392153,condo,781.1,614,"250 Webb Dr, Mississauga"
W3830686,Mississauga Valleys,549000,2017-06-15,Condo Townhouse,2-Storey,3,3,43.5947354,-79.6048523,condo,395,68,"600 Silver Creek Blvd, Mississauga"
W3820281,City Centre,598000,2017-06-15,Condo Apt,Loft,2,3,43.5881026,-79.6407535,condo,878.59,3404,"3939 Duke Of York Blvd, Mississauga"
W3831948,Streetsville,625000,2017-06-15,Condo Townhouse,2-Storey,3,2,43.5807256,-79.730338,condo,147,28,"2350 Britannia Rd, Mississauga"
W3820263,Erindale,336500,2017-06-15,Condo Apt,2-Storey,2,1,43.5583871,-79.6378607,condo,611.04,505,"1000 Cedarglen Gate, Mississauga"
W3833349,Erindale,580000,2017-06-15,Condo Townhouse,Multi-Level,3,2,43.557295,-79.6404745,condo,334.72,60,"1051 Cedarglen Gate, Mississauga"
W3832918,Port Credit,585000,2017-06-15,Condo Townhouse,2-Storey,3,2,43.540048,-79.600791,condo,440,79,"1050 Shawnmarr Rd, Mississauga"
W3822139,Central Erin Mills,620000,2017-06-15,Condo Townhouse,Stacked Townhse,3,3,43.5514377,-79.7197904,condo,201.2,6,"2875 Hazelton Pl, Mississauga"
W3824001,Port Credit,599900,2017-06-15,Condo Apt,Apartment,1,2,43.5559675,-79.5821171,condo,651.6,603,"1 Hurontario St, Mississauga"
W3807064,Malton,612000,2017-06-14,Semi-Detached,Bungalow,3,2,43.717323,-79.6281844,house,,,"3534 Laddie Cres, Mississauga"
W3825330,Mississauga Valleys,565000,2017-06-14,Semi-Detached,Bungalow-Raised,3,2,43.5905166,-79.6113354,house,,,"358 Lara Woods Rd, Mississauga"
W3835600,Erindale,670000,2017-06-14,Semi-Detached,Bungalow,3,2,43.5600118,-79.6608577,house,,,"3441 Queenston Dr, Mississauga"
W3836562,Churchill Meadows,720000,2017-06-14,Att/Row/Twnhouse,2-Storey,3,3,43.5541356,-79.7251577,house,,,"3161 Cabano Cres, Mississauga"
W3813505,East Credit,751000,2017-06-14,Semi-Detached,2-Storey,3,4,43.6049121,-79.6998076,house,,,"1037 Windbrook Grve, Mississauga"
W3829660,Lisgar,810000,2017-06-14,Detached,2-Storey,3,3,43.5804645,-79.7859104,house,,,"7115 Spyglass Cres, Mississauga"
W3834906,Lisgar,860000,2017-06-14,Detached,2-Storey,3,4,43.5637292,-79.7588133,house,,,"6100 Osprey Blvd, Mississauga"
W3805577,Applewood,860000,2017-06-14,Detached,Sidesplit 4,3,4,43.6017725,-79.6048113,house,,,"794 Hillman Cres, Mississauga"
W3834746,Creditview,860000,2017-06-14,Detached,2-Storey,4,3,43.5688685,-79.673337,house,,,"4192 Melia Dr, Mississauga"
W3822026,Lisgar,950000,2017-06-14,Detached,2-Storey,4,5,43.5849985,-79.7861664,house,,,"3344 Laburnum Cres, Mississauga"
W3829877,Applewood,1036500,2017-06-14,Detached,2-Storey,4,4,43.609705,-79.6110805,house,,,"885 Runningbrook Dr, Mississauga"
W3795905,East Credit,1165000,2017-06-14,Detached,2-Storey,4,4,43.5736404,-79.6821719,house,,,"4816 Rosebriar Crt, Mississauga"
W3828082,Cooksville,1190000,2017-06-14,Detached,2-Storey,4,4,43.5795012,-79.5985809,house,,,"2247 Florian Rd, Mississauga"
W3839217,Sheridan,1925000,2017-06-14,Detached,2-Storey,4,4,43.538772,-79.6464651,house,,,"2339 Otami Tr, Mississauga"
W3792849,Lorne Park,1080000,2017-06-14,Detached,Bungalow,3,2,43.5318429,-79.6085328,house,,,"1029 Lorne Park Rd, Mississauga"
W3838663,Malton,250000,2017-06-14,Condo Apt,Apartment,2,1,43.7144476,-79.6315045,condo,552.26,1008,"3533 Derry Rd, Mississauga"
W3827719,Mississauga Valleys,302000,2017-06-14,Condo Apt,Apartment,3,1,43.5923788,-79.6054282,condo,712,1110,"530 Lolita Gdns, Mississauga"
W3838669,Fairview,331500,2017-06-14,Condo Apt,Apartment,1,1,43.5896112,-79.6304348,condo,448,1908,"3504 Hurontario St, Mississauga"
W3806826,City Centre,330000,2017-06-14,Condo Apt,Apartment,2,2,43.5949126,-79.6357361,condo,730,1103,"50 Absolute Ave, Mississauga"
W3826656,City Centre,358000,2017-06-14,Condo Apt,Apartment,1,1,43.5886878,-79.6492378,condo,442.12,1301,"385 Prince Of Wales Dr, Mississauga"
W3839396,City Centre,355000,2017-06-14,Condo Apt,Apartment,1,1,43.5922739,-79.6343106,condo,463.96,1201,"208 Enfield Pl, Mississauga"
W3827834,Cooksville,385000,2017-06-14,Condo Apt,Apartment,2,2,43.5799964,-79.6249583,condo,614.75,1513,"155 Hillcrest Ave, Mississauga"
W3842349,City Centre,435000,2017-06-14,Condo Apt,Apartment,2,2,43.5837092,-79.6430719,condo,648.21,1602,"400 Webb Dr, Mississauga"
W3823187,Mississauga Valleys,430000,2017-06-14,Condo Apt,Apartment,2,1,43.5903906,-79.6285479,condo,713.01,1409,"50 Elm Dr, Mississauga"
W3839348,Hurontario,550000,2017-06-14,Condo Townhouse,2-Storey,3,3,43.594427,-79.666109,condo,307,71,"4620 Guildwood Way, Mississauga"
W3833224,Central Erin Mills,610000,2017-06-14,Condo Townhouse,2-Storey,3,4,43.5724407,-79.7395842,condo,231.77,34B,"5865 Dalebrook Cres, Mississauga"
W3815380,City Centre,602800,2017-06-14,Condo Apt,Apartment,2,2,43.5908484,-79.6320084,condo,784.29,Ph 2907,"33 Elm Dr, Mississauga"
W3824551,Hurontario,701000,2017-06-14,Condo Townhouse,2-Storey,3,4,43.6186398,-79.6490761,condo,246.99,161,"455 Apache Crt, Mississauga"
W3838271,Cooksville,650000,2017-06-13,Semi-Detached,Bungalow,3,2,43.5839176,-79.588108,house,,,"612 Abana Rd, Mississauga"
W3824915,Churchill Meadows,645000,2017-06-13,Att/Row/Twnhouse,2-Storey,3,3,43.5557324,-79.7574972,house,,,"3958 Coachman Circ, Mississauga"
W3839526,Meadowvale,670000,2017-06-13,Semi-Detached,Backsplit 5,3,2,43.5887856,-79.7694901,house,,,"2917 Arvida Circ, Mississauga"
W3823351,East Credit,695000,2017-06-13,Att/Row/Twnhouse,2-Storey,3,3,43.5894978,-79.6642948,house,,,"663 Dinsmore Crt, Mississauga"
W3823051,Applewood,699000,2017-06-13,Semi-Detached,2-Storey,4,3,43.6170961,-79.585288,house,,,"3130 Fieldgate Dr, Mississauga"
W3818886,East Credit,790000,2017-06-13,Att/Row/Twnhouse,2-Storey,3,4,43.6076081,-79.7029743,house,,,"6095 Rowers Cres, Mississauga"
W3833658,Mississauga Valleys,826000,2017-06-13,Detached,Backsplit 3,4,3,43.5967746,-79.6147394,house,,,"3345 Juanita Crt, Mississauga"
W3835220,Streetsville,800000,2017-06-13,Detached,2-Storey,3,2,43.6032519,-79.7242577,house,,,"19 Bowshelm Crt, Mississauga"
W3809685,East Credit,864000,2017-06-13,Detached,2-Storey,4,3,43.5907557,-79.6894001,house,,,"5373 Segriff Dr, Mississauga"
W3839724,Hurontario,900000,2017-06-13,Detached,2-Storey,4,3,43.602717,-79.6808029,house,,,"685 Savoy Cres, Mississauga"
W3793358,Fairview,900000,2017-06-13,Detached,2-Storey,3,4,43.5791115,-79.6392267,house,,,"3435 Warley Crt, Mississauga"
W3814658,Rathwood,995000,2017-06-13,Detached,2-Storey,4,4,43.6263269,-79.6159861,house,,,"1246 Highgate Pl, Mississauga"
W3833785,Central Erin Mills,1025000,2017-06-13,Detached,2-Storey,4,4,43.5637666,-79.7333553,house,,,"2728 Galleon Cres, Mississauga"
W3822114,Mineola,1150000,2017-06-13,Detached,Bungalow,3,2,43.5577242,-79.586954,house,,,"30 Oriole Ave, Mississauga"
W3822642,Mineola,1300000,2017-06-13,Detached,Backsplit 4,3,4,43.5740475,-79.5867808,house,,,"1524 Trotwood Ave, Mississauga"
W3799280,Port Credit,1250000,2017-06-13,Semi-Detached,2-Storey,3,4,43.5627297,-79.5752484,house,,,"26 Tecumseth Ave, Mississauga"
W3830455,Meadowvale,1495000,2017-06-13,Detached,2-Storey,4,4,43.6212202,-79.7174109,house,,,"6676 Viola Crt, Mississauga"
W3833898,Cooksville,1710000,2017-06-13,Detached,2-Storey,4,4,43.5680067,-79.6067161,house,,,"2123 Gordon Dr, Mississauga"
W3838676,Hurontario,312000,2017-06-13,Condo Apt,Apartment,1,1,43.6040469,-79.6523525,condo,452.72,2101,"45 Kingsbridge Garden Circ, Mississauga"
W3812383,Cooksville,370000,2017-06-13,Condo Apt,Apartment,2,2,43.584579,-79.617682,condo,742,1104,"3170 Kirwin Ave, Mississauga"
W3817524,City Centre,340000,2017-06-13,Condo Apt,Apartment,2,2,43.5997256,-79.6383809,condo,783,502,"4205 Shipp Dr, Mississauga"
W3816626,City Centre,393000,2017-06-13,Condo Apt,Apartment,2,2,43.5846976,-79.6422741,condo,790.16,1403,"350 Webb Dr, Mississauga"
W3791392,City Centre,417000,2017-06-13,Condo Apt,Apartment,1,2,43.5886878,-79.6492378,condo,510.76,2308,"385 Prince Of Wales Dr, Mississauga"
W3839600,Mississauga Valleys,570000,2017-06-13,Condo Townhouse,Multi-Level,4,2,43.597323,-79.619071,condo,405,5,"400 Bloor St, Mississauga"
W3824705,East Credit,653700,2017-06-13,Condo Townhouse,2-Storey,3,4,43.5830491,-79.6811742,condo,110,67,"1292 Sherwood Mills Blvd, Mississauga"
W3821489,City Centre,722000,2017-06-13,Condo Apt,Apartment,2,3,43.5878519,-79.6398442,condo,955.46,Lph02,"225 Webb Dr, Mississauga"
W3776417,City Centre,780000,2017-06-13,Condo Apt,Loft,3,3,43.5881026,-79.6407535,condo,940.19,Ph06,"3939 Duke Of York Blvd, Mississauga"
W3813275,Central Erin Mills,315000,2017-06-13,Condo Apt,Apartment,1,1,43.5616395,-79.7125509,condo,371,Ph3,"2565 Erin Centre Blvd, Mississauga"
W3828685,Churchill Meadows,345000,2017-06-13,Condo Apt,Apartment,1,1,43.5524055,-79.7224471,condo,248,408,"5170 Winston Churchill Blvd, Mississauga"
W3822208,Erin Mills,509500,2017-06-13,Condo Townhouse,2-Storey,2,4,43.5375166,-79.6701396,condo,275,43,"3079 Fifth Line, Mississauga"
W3831717,Meadowvale,675000,2017-06-12,Semi-Detached,2-Storey,4,3,43.5916359,-79.7741631,house,,,"7284 Bendigo Circ, Mississauga"
W3828375,Churchill Meadows,761000,2017-06-12,Semi-Detached,2-Storey,3,3,43.5589201,-79.7321459,house,,,"3303 Stoney Cres, Mississauga"
W3826340,Hurontario,787000,2017-06-12,Detached,2-Storey,3,3,43.6212941,-79.6473439,house,,,"530 Driftcurrent Dr, Mississauga"
W3823123,Mississauga Valleys,730000,2017-06-12,Detached,Backsplit 3,3,3,43.5987503,-79.6145513,house,,,"3381 Nadine Cres, Mississauga"
W3772529,East Credit,737000,2017-06-12,Detached,2-Storey,3,2,43.6144042,-79.7030523,house,,,"6213 Mccracken Dr, Mississauga"
W3802440,Churchill Meadows,820000,2017-06-12,Detached,2-Storey,3,3,43.5479717,-79.7446572,house,,,"5555 Bridgeport Gate, Mississauga"
W3814330,Streetsville,1152500,2017-06-12,Detached,2-Storey,5,4,43.5816193,-79.7269749,house,,,"5944 Rayshaw Cres, Mississauga"
W3835293,Fairview,1150000,2017-06-12,Detached,2-Storey,4,4,43.5765248,-79.6424794,house,,,"3435 Grand Park Dr, Mississauga"
W3812886,Port Credit,1250000,2017-06-12,Semi-Detached,2-Storey,3,4,43.5628261,-79.5765706,house,,,"58 Forest Ave, Mississauga"
W3813736,Clarkson,705000,2017-06-12,Detached,2-Storey,3,3,43.5090321,-79.6205806,house,,,"1916 Carrera Crt, Mississauga"
W3832260,Clarkson,780000,2017-06-12,Att/Row/Twnhouse,2-Storey,3,4,43.5239173,-79.6178478,house,,,"1039 Zante Cres, Mississauga"
W3819931,Clarkson,775000,2017-06-12,Detached,Bungalow,4,3,43.5070441,-79.6532683,house,,,"1435 Seaview Dr, Mississauga"
W3821361,City Centre,348900,2017-06-12,Condo Apt,Apartment,2,1,43.5837092,-79.6430719,condo,503.79,1901,"400 Webb Dr, Mississauga"
W3828116,City Centre,369000,2017-06-12,Condo Apt,Apartment,2,1,43.5949918,-79.63535428,condo,703.37,4508,"50 Absolute Ave, Mississauga"
W3785608,City Centre,375000,2017-06-12,Condo Apt,Apartment,1,1,43.5894055,-79.6493188,condo,378,2212,"360 Square One Dr, Mississauga"
W3834297,Hurontario,386000,2017-06-12,Condo Apt,Apartment,1,1,43.6061403,-79.6542717,condo,389.58,2103,"55 Eglinton Ave, Mississauga"
W3820447,City Centre,380500,2017-06-12,Condo Apt,Apartment,1,1,43.586471,-79.6479597,condo,442.88,3405,"4099 Brickstone Mews, Mississauga"
W3825971,City Centre,450000,2017-06-12,Condo Apt,Apartment,2,2,43.587432,-79.646474,condo,741.24,1101,"350 Princess Royal Dr, Mississauga"
W3825669,Hurontario,527000,2017-06-12,Condo Townhouse,3-Storey,3,2,43.6170452,-79.6604495,condo,434.77,100,"107 Bristol Rd, Mississauga"
W3835044,City Centre,520000,2017-06-12,Condo Apt,Apartment,2,2,43.5856392,-79.6463896,condo,0,3109,"510 Curran Pl, Mississauga"
W3819163,East Credit,550000,2017-06-12,Condo Townhouse,2-Storey,3,3,43.5910701,-79.7017156,condo,330,49,"1485 Torrington Dr, Mississauga"
W3829191,City Centre,1900000,2017-06-12,Condo Apt,Apartment,3,4,43.5944944,-79.6351873,condo,2413.96,5601,"60 Absolute Ave, Mississauga"
W3819871,Erin Mills,422000,2017-06-12,Condo Apt,Apartment,2,2,43.5454142,-79.6846882,condo,892.91,610,"2177 Burnhamthorpe Rd, Mississauga"
W3830492,Erindale,540000,2017-06-12,Condo Townhouse,2-Storey,3,2,43.56337324,-79.63751614,condo,308.32,4,"830 Stainton Dr, Mississauga"
W3833096,Streetsville,805000,2017-06-11,Detached,Bungalow,3,2,43.5841,-79.7235799,house,,,"26 Pioneer Dr, Mississauga"
W3822243,Meadowvale,675000,2017-06-11,Semi-Detached,2-Storey,4,4,43.5875503,-79.7739396,house,,,"3127 Pendleton Rd, Mississauga"
W3820515,Hurontario,705000,2017-06-11,Att/Row/Twnhouse,2-Storey,3,3,43.5973435,-79.6667406,house,,,"551 Galaxy Crt, Mississauga"
W3832042,Lakeview,861000,2017-06-11,Detached,2-Storey,4,3,43.5857117,-79.553139,house,,,"1066 Dixie Rd, Mississauga"
W3817077,Churchill Meadows,765000,2017-06-11,Att/Row/Twnhouse,2-Storey,3,3,43.5449845,-79.7225621,house,,,"3369 Eglinton Ave, Mississauga"
W3817086,Churchill Meadows,780000,2017-06-11,Att/Row/Twnhouse,2-Storey,3,4,43.5613704,-79.7451842,house,,,"5846 Tenth Line, Mississauga"
W3836977,Lisgar,858500,2017-06-11,Detached,2-Storey,4,3,43.5710477,-79.7647076,house,,,"3325 Magpie Row, Mississauga"
W3825278,Lakeview,890000,2017-06-11,Detached,Sidesplit 3,3,2,43.5880543,-79.5893628,house,,,"726 Melton Dr, Mississauga"
W3810614,East Credit,875000,2017-06-11,Detached,2-Storey,4,4,43.5975881,-79.7004254,house,,,"5883 Sidmouth St, Mississauga"
W3835739,Lakeview,1222500,2017-06-11,Detached,Bungalow,3,2,43.5963253,-79.5615241,house,,,"1478 Orchard Haven Rdge, Mississauga"
W3810871,Erindale,2080000,2017-06-11,Detached,Bungalow-Raised,3,4,43.5578032,-79.6115634,house,,,"2004 Heartwood Crt, Mississauga"
W3790563,Lorne Park,2750000,2017-06-11,Detached,2-Storey,5,7,43.5409488,-79.6170296,house,,,"1029 Indian Rd, Mississauga"
W3834104,Clarkson,700000,2017-06-11,Semi-Detached,Backsplit 4,3,2,43.5066526,-79.6522363,house,,,"2637 Constable Rd, Mississauga"
W3815060,Cooksville,286000,2017-06-11,Condo Apt,Apartment,3,2,43.572979,-79.6117505,condo,918.74,1404,"2323 Confederation Pkwy, Mississauga"
W3826300,Applewood,334000,2017-06-11,Condo Townhouse,Stacked Townhse,3,2,43.6213885,-79.5889442,condo,608,18,"1624 Bloor St, Mississauga"
W3800334,City Centre,375000,2017-06-11,Condo Apt,Apartment,1,1,43.5881453,-79.6480628,condo,424.1,1906,"388 Prince Of Wales Dr, Mississauga"
W3800924,Fairview,380000,2017-06-11,Condo Apt,Apartment,1,1,43.5908212,-79.6320075,condo,400,2610,"1 Elm Dr, Mississauga"
W3827830,Meadowvale,409900,2017-06-11,Condo Townhouse,Stacked Townhse,3,2,43.5879717,-79.7571431,condo,404,42,"2701 Aquitaine Ave, Mississauga"
W3817451,Hurontario,432500,2017-06-11,Condo Apt,Apartment,2,2,43.6116151,-79.6495647,condo,512.71,704,"220 Forum Dr, Mississauga"
W3816497,Streetsville,461500,2017-06-11,Condo Townhouse,2-Storey,3,2,43.604212,-79.7313332,condo,354.7,141,"6540 Falconer Dr, Mississauga"
W3784576,Hurontario,490000,2017-06-11,Condo Apt,Apartment,3,2,43.6048834,-79.6511149,condo,842.44,2103,"35 Kingsbridge Garden Circ, Mississauga"
W3813852,Meadowvale,506000,2017-06-11,Condo Townhouse,3-Storey,4,2,43.5915326,-79.770955,condo,325.4,19,"7340 Copenhagen Rd, Mississauga"
W3798152,City Centre,578000,2017-06-11,Condo Apt,Apartment,2,2,43.5862105,-79.6429298,condo,742.59,Ph3,"330 Burnhamthorpe Rd, Mississauga"
W3810021,Hurontario,636000,2017-06-11,Condo Townhouse,3-Storey,3,3,43.6041405,-79.646039,condo,125,215,"80 Acorn Pl, Mississauga"
W3837005,Erindale,250000,2017-06-11,Condo Apt,2-Storey,3,2,43.5589912,-79.6439393,condo,590,133,"1050 Stainton Dr, Mississauga"
W3819144,Erindale,349888,2017-06-11,Condo Apt,Apartment,2,2,43.55942938,-79.63964045,condo,704.6,107,"1001 Cedarglen Gate, Mississauga"
W3832072,Erindale,394000,2017-06-11,Condo Townhouse,3-Storey,5,2,43.5527313,-79.6488948,condo,564,204,"3025 The Credit Woodlands Cres, Mississauga"
W3825837,Central Erin Mills,475000,2017-06-11,Condo Apt,Apartment,2,2,43.5511052,-79.713685,condo,682,1503,"4879 Kimbermount Ave, Mississauga"
W3824095,Churchill Meadows,556000,2017-06-11,Condo Townhouse,2-Storey,2,3,43.5518557,-79.7228938,condo,265.69,141,"3050 Erin Centre Blvd, Mississauga"
W3814241,Erindale,578000,2017-06-11,Condo Townhouse,2-Storey,3,4,43.5574237,-79.6393577,condo,305.82,3,"2575 Parmeer Dr, Mississauga"
W3822701,Central Erin Mills,700000,2017-06-11,Condo Townhouse,Multi-Level,3,4,43.550944,-79.712785,condo,271.75,13,"4605 Donegal Dr, Mississauga"
W3835251,Erin Mills,785000,2017-06-11,Condo Townhouse,2-Storey,2,3,43.5433337,-79.667328,condo,411.31,21,"1905 Broad Hollow Gate, Mississauga"
W3831929,Lisgar,652500,2017-06-10,Semi-Detached,2-Storey,3,3,43.5777519,-79.7800802,house,,,"6939 Gracefield Dr, Mississauga"
W3817755,Lisgar,695000,2017-06-10,Semi-Detached,2-Storey,4,4,43.5773636,-79.780421,house,,,"3796 Allcroft Rd, Mississauga"
W3783072,Erindale,670000,2017-06-10,Semi-Detached,Bungalow,3,3,43.561623,-79.66013,house,,,"3445 Ashcroft Cres, Mississauga"
W3824056,Churchill Meadows,715000,2017-06-10,Att/Row/Twnhouse,2-Storey,3,4,43.5380021,-79.7311679,house,,,"3738 Nightstar Dr, Mississauga"
W3837236,Churchill Meadows,720000,2017-06-10,Semi-Detached,2-Storey,3,4,43.5631238,-79.737972,house,,,"3046 Hawktail Cres, Mississauga"
W3833043,Cooksville,810000,2017-06-10,Semi-Detached,Backsplit 5,4,3,43.5640832,-79.6256013,house,,,"2442 Cashmere Ave, Mississauga"
W3832358,East Credit,850000,2017-06-10,Detached,2-Storey,3,4,43.614098,-79.7083397,house,,,"6249 Mcgriff Crt, Mississauga"
W3825612,Meadowvale,820500,2017-06-10,Detached,2-Storey,4,4,43.5888827,-79.7790789,house,,,"7285 Harding Cres, Mississauga"
W3804124,Hurontario,820000,2017-06-10,Detached,2-Storey,4,4,43.6154103,-79.6348878,house,,,"4525 Full Moon Circ, Mississauga"
W3830823,Central Erin Mills,862000,2017-06-10,Detached,2-Storey,4,4,43.5641748,-79.7373378,house,,,"2906 Gardenview Cres, Mississauga"
W3826268,Meadowvale,950000,2017-06-10,Detached,2-Storey,4,3,43.5767033,-79.7629219,house,,,"3145 Spring Creek Cres, Mississauga"
W3832674,Applewood,1230000,2017-06-10,Detached,Sidesplit 4,4,3,43.6076702,-79.608681,house,,,"880 Lexicon Dr, Mississauga"
W3801150,Creditview,1112000,2017-06-10,Detached,2-Storey,4,3,43.5798347,-79.6635339,house,,,"4473 Beacon Lane, Mississauga"
W3808638,Mineola,2000000,2017-06-10,Detached,Bungalow,5,5,43.5567516,-79.6074822,house,,,"1562 Pinetree Cres, Mississauga"
W3780907,Lorne Park,1070000,2017-06-10,Detached,Bungalow,2,1,43.5315408,-79.6183647,house,,,"1211 Lorne Park Rd, Mississauga"
W3834525,Clarkson,1310000,2017-06-10,Detached,2-Storey,4,3,43.5227816,-79.6155842,house,,,"950 Cristina Crt, Mississauga"
W3834981,Hurontario,330000,2017-06-10,Condo Townhouse,Stacked Townhse,2,1,43.6164627,-79.6628663,condo,388.96,227,"101 Bristol Rd, Mississauga"
W3837204,Cooksville,322500,2017-06-10,Condo Apt,Apartment,1,1,43.5809431,-79.6239362,condo,540.81,1906,"115 Hillcrest Ave, Mississauga"
W3816349,City Centre,367000,2017-06-10,Condo Apt,Apartment,2,2,43.5956374,-79.6348433,condo,478.11,Lph10,"80 Absolute Ave, Mississauga"
W3833174,Mississauga Valleys,410000,2017-06-10,Condo Apt,Apartment,2,2,43.5903906,-79.6285479,condo,825.36,1401,"50 Elm Dr, Mississauga"
W3817352,Applewood,505000,2017-06-10,Condo Townhouse,2-Storey,3,2,43.6093815,-79.591351,condo,380,13,"3150 Queen Frederica Dr, Mississauga"
W3833102,Churchill Meadows,370000,2017-06-10,Condo Apt,Apartment,1,1,43.5600405,-79.7362319,condo,289.71,112,"3075 Thomas St, Mississauga"
W3763386,Lakeview,740000,2017-06-09,Detached,1 1/2 Storey,3,3,43.5777399,-79.5626587,house,,,"1095 Meredith Ave, Mississauga"
W3831043,Erindale,939000,2017-06-09,Detached,Backsplit 4,4,3,43.5603024,-79.6502104,house,,,"3216 Valmarie Ave, Mississauga"
W3807279,East Credit,1027000,2017-06-09,Detached,2-Storey,4,4,43.5888093,-79.6905256,house,,,"5378 Crane Crt, Mississauga"
W3832544,Churchill Meadows,962500,2017-06-09,Detached,2-Storey,4,4,43.558811,-79.7513872,house,,,"5875 Bermuda Dr, Mississauga"
W3832020,Churchill Meadows,1240000,2017-06-09,Detached,2-Storey,5,5,43.5381406,-79.7240588,house,,,"3644 Fortune Pl, Mississauga"
W3823043,Clarkson,590000,2017-06-09,Semi-Detached,2-Storey,3,1,43.5100829,-79.642574,house,,,"2368 Brookhurst Rd, Mississauga"
W3801285,Clarkson,827000,2017-06-09,Detached,Sidesplit 4,3,2,43.5182972,-79.642383,house,,,"2143 Truscott Dr, Mississauga"
W3804460,Lorne Park,1910000,2017-06-09,Detached,2-Storey,5,5,43.5354714,-79.6317636,house,,,"1469 Indian Rd, Mississauga"
W3821563,City Centre,310000,2017-06-09,Condo Apt,Apartment,1,1,43.5955399,-79.6338394,condo,509.62,1211,"90 Absolute Ave, Mississauga"
W3835086,City Centre,403000,2017-06-09,Condo Apt,Apartment,2,2,43.5956374,-79.6348433,condo,523.43,1606,"80 Absolute Ave, Mississauga"
W3805954,City Centre,465000,2017-06-09,Condo Apt,Apartment,2,2,43.586471,-79.6479597,condo,539.52,2208,"4099 Brickstone Mews, Mississauga"
W3835131,City Centre,471000,2017-06-09,Condo Apt,Apartment,2,2,43.5816391,-79.648193,condo,489.98,1712,"3985 Grand Park Dr, Mississauga"
W3832843,City Centre,510000,2017-06-09,Condo Apt,Apartment,2,2,43.5908465,-79.6339813,condo,774.21,910,"156 Enfield Pl, Mississauga"
W3835736,East Credit,525000,2017-06-09,Condo Townhouse,3-Storey,3,3,43.59423269,-79.6858901,condo,155,53,"1050 Bristol Rd, Mississauga"
W3819544,Streetsville,539000,2017-06-09,Condo Townhouse,2-Storey,3,2,43.602611,-79.7299024,condo,369.2,46,"120 Falconer Dr, Mississauga"
W3820707,Applewood,579000,2017-06-09,Condo Apt,Apartment,2,2,43.61537,-79.595161,condo,876.66,711,"1300 Bloor St, Mississauga"
W3833882,Central Erin Mills,327500,2017-06-09,Condo Apt,Apartment,1,1,43.561597,-79.712093,condo,497.1,1611,"2545 Erin Centre Blvd, Mississauga"
W3790295,Clarkson,368000,2017-06-09,Condo Apt,2-Storey,4,3,43.50996163,-79.62509215,condo,658.02,189,"2001 Bonnymede Dr, Mississauga"
W3824171,Churchill Meadows,460000,2017-06-09,Condo Apt,Multi-Level,2,2,43.5512096,-79.7209956,condo,322,303,"5100 Winston Churchill Blvd, Mississauga"
W3781939,Malton,651000,2017-06-08,Detached,Bungalow,3,1,43.7164626,-79.6564862,house,,,"7623 Redstone Rd, Mississauga"
W3824683,Rathwood,900000,2017-06-08,Detached,2-Storey,3,4,43.6285846,-79.598521,house,,,"1628 Dewberry Cres, Mississauga"
W3814638,Dixie,66000,2017-06-08,Mobile/Trailer,Bungalow,2,1,43.6194966,-79.5770803,house,,,"1749 Dundas St, Mississauga"
W3829790,East Credit,615000,2017-06-08,Att/Row/Twnhouse,2-Storey,3,3,43.6170389,-79.7048833,house,,,"815 Clemens Cres, Mississauga"
W3831928,Meadowvale,710000,2017-06-08,Detached,2-Storey,4,2,43.5755107,-79.7509091,house,,,"6317 Neuchatel Rd, Mississauga"
W3826843,Hurontario,675000,2017-06-08,Att/Row/Twnhouse,2-Storey,3,3,43.595934,-79.666257,house,,,"5020 Northern Lights Circ, Mississauga"
W3811753,Hurontario,710000,2017-06-08,Link,2-Storey,3,3,43.6015626,-79.6572354,house,,,"4742 Empire Cres, Mississauga"
W3815146,Meadowvale Village,701500,2017-06-08,Semi-Detached,2-Storey,3,3,43.6199892,-79.7387411,house,,,"7009 Frontier Rdge, Mississauga"
W3822595,Lisgar,745000,2017-06-08,Detached,2-Storey,3,3,43.5641748,-79.7562256,house,,,"3343 Sundew Crt, Mississauga"
W3811106,Lisgar,840000,2017-06-08,Detached,2-Storey,3,4,43.5767497,-79.7883601,house,,,"3750 Densbury Dr, Mississauga"
W3825452,Lisgar,836000,2017-06-08,Detached,2-Storey,3,4,43.5617801,-79.7656641,house,,,"3721 Windhaven Dr, Mississauga"
W3823245,Churchill Meadows,825000,2017-06-08,Detached,2-Storey,3,3,43.5616133,-79.746496,house,,,"3221 Mcdowell Dr, Mississauga"
W3789854,Hurontario,925000,2017-06-08,Detached,2-Storey,4,4,43.6134842,-79.640873,house,,,"4586 Moccasin Tr, Mississauga"
W3834696,Applewood,900900,2017-06-08,Detached,Backsplit 4,4,2,43.6044372,-79.5958921,house,,,"1039 Sierra Blvd, Mississauga"
W3823765,Central Erin Mills,940000,2017-06-08,Detached,2-Storey,4,3,43.5677902,-79.7406955,house,,,"5924 Greensboro Dr, Mississauga"
W3821183,Lisgar,1098000,2017-06-08,Detached,2-Storey,4,5,43.5805639,-79.7928896,house,,,"7516 Terragar Blvd, Mississauga"
W3832426,Hurontario,1050000,2017-06-08,Detached,2-Storey,4,3,43.6031575,-79.6643033,house,,,"5261 Naskapi Crt, Mississauga"
W3825634,Sheridan,1350000,2017-06-08,Detached,2-Storey,4,4,43.5438006,-79.6327996,house,,,"2104 Mississauga Rd, Mississauga"
W3830711,Erin Mills,1365000,2017-06-08,Detached,2-Storey,4,4,43.5368403,-79.6969124,house,,,"3642 Pitch Pine Cres, Mississauga"
W3812613,East Credit,1625000,2017-06-08,Detached,2-Storey,5,4,43.6132817,-79.7146704,house,,,"1095 Haydonbridge Crt, Mississauga"
W3812364,Lorne Park,2355000,2017-06-08,Detached,2-Storey,4,5,43.5368214,-79.6257588,house,,,"1304 Indian Rd, Mississauga"
W3749124,Clarkson,550000,2017-06-08,Semi-Detached,2-Storey,3,1,43.5110187,-79.6423077,house,,,"2337 Brookhurst Rd, Mississauga"
W3811440,Clarkson,685000,2017-06-08,Semi-Detached,Bungalow-Raised,3,2,43.5033284,-79.6516405,house,,,"2649 Sherhill Dr, Mississauga"
W3828336,Erin Mills,795000,2017-06-08,Detached,2-Storey,3,4,43.5197296,-79.6958758,house,,,"3480 Beau Rivage Cres, Mississauga"
W3810788,Malton,285000,2017-06-08,Condo Apt,Apartment,2,1,43.7150614,-79.6308258,condo,525,106,"3555 Derry Rd, Mississauga"
W3799935,Malton,294500,2017-06-08,Condo Apt,Apartment,2,1,43.715948,-79.6302286,condo,525,411,"3577 Derry Rd, Mississauga"
W3823419,Meadowvale,282000,2017-06-08,Condo Apt,Apartment,2,2,43.5837179,-79.7628877,condo,722.55,714,"2929 Aquitaine Ave, Mississauga"
W3805387,Applewood,262000,2017-06-08,Condo Apt,Apartment,2,1,43.6087728,-79.5880682,condo,474,703,"3065 Queen Frederica Dr, Mississauga"
W3828309,Cooksville,285000,2017-06-08,Condo Apt,Apartment,1,1,43.5799964,-79.6249583,condo,594.39,514,"155 Hillcrest Ave, Mississauga"
W3819079,City Centre,323000,2017-06-08,Condo Townhouse,Apartment,1,1,43.5885329,-79.6404578,condo,430,405,"220 Burnhamthorpe Rd, Mississauga"
W3789415,City Centre,320000,2017-06-08,Condo Apt,Apartment,2,2,43.5904687,-79.6357942,condo,536.19,211,"285 Enfield Pl, Mississauga"
W3804052,City Centre,365000,2017-06-08,Condo Apt,Apartment,1,1,43.5894055,-79.6493188,condo,378.56,2612,"360 Square One Dr, Mississauga"
W3822005,City Centre,380000,2017-06-08,Condo Apt,Apartment,1,1,43.5885461,-79.6315999,condo,409.01,1207,"3525 Kariya Dr, Mississauga"
W3829651,Lakeview,555000,2017-06-08,Condo Apt,Apartment,2,2,43.5742228,-79.5695439,condo,613.79,708,"1140 Parkwest Pl, Mississauga"
W3814998,Meadowvale,410000,2017-06-08,Condo Townhouse,Bungalow,2,1,43.5879717,-79.7571431,condo,369.7,93,"2701 Aquitaine Ave, Mississauga"
W3826591,City Centre,425000,2017-06-08,Condo Apt,Apartment,2,2,43.5811165,-79.6456079,condo,613.52,712,"550 Webb Dr, Mississauga"
W3824673,Meadowvale,460000,2017-06-08,Condo Townhouse,2-Storey,4,2,43.5890738,-79.7609191,condo,358.36,26,"6779 Glen Erin Dr, Mississauga"
W3818654,City Centre,502000,2017-06-08,Condo Apt,Apartment,2,2,43.5859356,-79.6471487,condo,685,205,"4065 Brickstone Mews, Mississauga"
W3820062,Lakeview,527000,2017-06-08,Condo Apt,Apartment,2,2,43.5913257,-79.5609874,condo,874.94,1410,"1400 Dixie Rd, Mississauga"
W3823612,East Credit,555000,2017-06-08,Condo Townhouse,3-Storey,3,2,43.5765272,-79.685063,condo,130.36,20,"1525 South Parade Crt, Mississauga"
W3824987,East Credit,583000,2017-06-08,Condo Townhouse,2-Storey,3,3,43.5755577,-79.6849097,condo,360,51,"1575 South Parade Crt, Mississauga"
W3816866,East Credit,620000,2017-06-08,Condo Townhouse,2-Storey,3,3,43.5892001,-79.6735092,condo,209.02,129,"5030 Heatherleigh Ave, Mississauga"
W3832758,Churchill Meadows,302000,2017-06-08,Condo Townhouse,Stacked Townhse,1,1,43.546467,-79.7188277,condo,155.47,207,"4975 Southampton Dr, Mississauga"
W3819012,Churchill Meadows,410000,2017-06-08,Condo Townhouse,Stacked Townhse,1,2,43.535986,-79.733122,condo,188.23,16,"3985 Eglington Ave, Mississauga"
W3823480,Erin Mills,548888,2017-06-08,Condo Apt,Apartment,2,2,43.5433846,-79.6658212,condo,961.79,604,"1700 The Collegeway , Mississauga"
W3826694,Mineola,607000,2017-06-08,Condo Townhouse,3-Storey,3,3,43.5623125,-79.5900394,condo,394,14,"20 Mineola Rd, Mississauga"
W3826407,Erin Mills,965000,2017-06-08,Condo Townhouse,2-Storey,3,4,43.5433337,-79.667328,condo,555.53,17,"1905 Broad Hollow Gate, Mississauga"
W3809809,Malton,660000,2017-06-07,Semi-Detached,Bungalow-Raised,3,2,43.7182899,-79.654257,house,,,"7715 Redstone Rd, Mississauga"
W3826287,Meadowvale Village,725000,2017-06-07,Link,2-Storey,3,4,43.6404761,-79.73071,house,,,"7438 Magistrate Terr, Mississauga"
W3796775,Rathwood,1035000,2017-06-07,Detached,2-Storey,4,4,43.6293256,-79.5964012,house,,,"1690 Saltdene Terr, Mississauga"
W3828759,Churchill Meadows,620000,2017-06-07,Att/Row/Twnhouse,2-Storey,3,3,43.5548641,-79.7580453,house,,,"3929 Coachman Circ, Mississauga"
W3824415,Meadowvale Village,640000,2017-06-07,Att/Row/Twnhouse,2-Storey,2,2,43.6225289,-79.7113966,house,,,"6638 Opera Glass Cres, Mississauga"
W3830482,Applewood,625000,2017-06-07,Semi-Detached,2-Storey,3,2,43.6231479,-79.5914144,house,,,"3385 Bannerhill Ave, Mississauga"
W3815534,Churchill Meadows,730000,2017-06-07,Semi-Detached,2-Storey,3,4,43.5452581,-79.7450318,house,,,"3810 Talias Cres, Mississauga"
W3829593,Hurontario,880000,2017-06-07,Detached,2-Storey,4,3,43.6077269,-79.662975,house,,,"212 Glenn Hawthorne Blvd, Mississauga"
W3800203,Applewood,871500,2017-06-07,Detached,Backsplit 4,3,3,43.6271354,-79.5849904,house,,,"1846 Steepbank Cres, Mississauga"
W3755594,Churchill Meadows,950000,2017-06-07,Detached,2-Storey,3,3,43.5460296,-79.7450622,house,,,"5512 Farmcote Dr, Mississauga"
W3821812,Cooksville,930000,2017-06-07,Detached,2-Storey,4,4,43.5665741,-79.630904,house,,,"2673 Kingsberry Cres, Mississauga"
W3832141,Cooksville,1200000,2017-06-07,Detached,Backsplit 4,4,3,43.5827099,-79.6001591,house,,,"2330 Altersen Pl, Mississauga"
W3825414,Lorne Park,1370000,2017-06-07,Detached,Sidesplit 3,4,3,43.5503989,-79.6089578,house,,,"613 Sequin Cres, Mississauga"
W3834221,Lorne Park,1300000,2017-06-07,Detached,Sidesplit 4,4,3,43.5362679,-79.6130034,house,,,"1151 Cloverbrae Cres, Mississauga"
W3831923,Sheridan,599500,2017-06-07,Semi-Detached,2-Storey,4,2,43.5205082,-79.6728906,house,,,"2824 Hollington Cres, Mississauga"
W3831580,Sheridan,690000,2017-06-07,Semi-Detached,2-Storey,3,3,43.5197785,-79.6741548,house,,,"2784 Hollington Cres, Mississauga"
W3824030,Clarkson,648500,2017-06-07,Semi-Detached,Backsplit 4,4,2,43.5084157,-79.6233173,house,,,"1888 Silverberry Cres, Mississauga"
W3810388,Erin Mills,834000,2017-06-07,Detached,2-Storey,3,4,43.5303227,-79.7125813,house,,,"3378 Bertrand Rd, Mississauga"
W3818011,Meadowvale,282000,2017-06-07,Condo Apt,Apartment,1,1,43.5860059,-79.7601356,condo,447.72,710,"6720 Glen Erin Dr, Mississauga"
W3694167,City Centre,318000,2017-06-07,Condo Apt,Apartment,1,1,43.5895325,-79.6523158,condo,0,1701,"339 Rathburn Rd, Mississauga"
W3819320,City Centre,397000,2017-06-07,Condo Apt,Apartment,1,1,43.5856392,-79.6463896,condo,0,1401,"510 Curran Pl, Mississauga"
W3815480,City Centre,440000,2017-06-07,Condo Apt,Apartment,2,2,43.5896112,-79.6304348,condo,679.33,2810,"3504 Hurontario St, Mississauga"
W3815072,Hurontario,595000,2017-06-07,Condo Apt,Apartment,2,2,43.6040469,-79.6523525,condo,1043.65,2511,"45 Kingsbridge Garden Circ, Mississauga"
W3825109,East Credit,640000,2017-06-07,Condo Townhouse,3-Storey,3,4,43.5892001,-79.6735092,condo,221.78,71,"5030 Heatherleigh Ave, Mississauga"
W3829680,Central Erin Mills,356000,2017-06-07,Condo Apt,Apartment,1,1,43.5533004,-79.7106018,condo,329.21,1706,"4900 Glen Erin Dr, Mississauga"
W3787844,Erin Mills,590000,2017-06-07,Condo Townhouse,2-Storey,3,4,43.525528,-79.687285,condo,484.01,111,"3050 Orleans Rd, Mississauga"
W3818453,Port Credit,879900,2017-06-07,Condo Townhouse,3-Storey,3,4,43.5575278,-79.5834058,condo,395.42,,"120 Park St, Mississauga"
W3824183,Churchill Meadows,617000,2017-06-06,Att/Row/Twnhouse,2-Storey,3,3,43.5614138,-79.745212,house,,,"5848 Tenth Line, Mississauga"
W3793421,Hurontario,633500,2017-06-06,Semi-Detached,2-Storey,3,3,43.6212396,-79.6495361,house,,,"5394 Byford Pl, Mississauga"
W3805694,Meadowvale,680000,2017-06-06,Semi-Detached,2-Storey,3,2,43.5880054,-79.7658704,house,,,"6886 Avila Dr, Mississauga"
W3812666,Churchill Meadows,668000,2017-06-06,Semi-Detached,2-Storey,3,3,43.5560118,-79.7416296,house,,,"5653 Raleigh St, Mississauga"
W3788033,Hurontario,660000,2017-06-06,Att/Row/Twnhouse,3-Storey,3,4,43.6078863,-79.687519,house,,,"5789 Tiz Rd, Mississauga"
W3830576,Meadowvale,720000,2017-06-06,Semi-Detached,2-Storey,3,3,43.5796882,-79.7474053,house,,,"6357 Atherly Cres, Mississauga"
W3815559,East Credit,738000,2017-06-06,Link,2-Storey,3,4,43.5849676,-79.675945,house,,,"4630 Penhallow Rd, Mississauga"
W3822527,Port Credit,825000,2017-06-06,Detached,2-Storey,3,3,43.5444996,-79.5990796,house,,,"184 Queen West St, Mississauga"
W3811303,Fairview,835000,2017-06-06,Detached,2-Storey,3,2,43.5863049,-79.6347453,house,,,"175 Melville Ave, Mississauga"
W3824851,Mississauga Valleys,870000,2017-06-06,Detached,Bungalow,3,2,43.6011901,-79.6125522,house,,,"634 Vermouth Ave, Mississauga"
W3808636,Cooksville,883000,2017-06-06,Detached,Backsplit 4,4,2,43.5832202,-79.5888444,house,,,"2106 Asta Dr, Mississauga"
W3821452,East Credit,1000000,2017-06-06,Detached,2-Storey,4,4,43.6010987,-79.6866072,house,,,"879 Stonebridge Ave, Mississauga"
W3823932,Rathwood,945000,2017-06-06,Detached,2-Storey,3,4,43.6250718,-79.613588,house,,,"4243 Highgate Cres, Mississauga"
W3811337,Meadowvale,975000,2017-06-06,Detached,2-Storey,4,4,43.5689838,-79.7463916,house,,,"6128 Edenwood Dr, Mississauga"
W3791356,Hurontario,920000,2017-06-06,Detached,2-Storey,4,4,43.5945013,-79.6542022,house,,,"342 Harrowsmith Dr, Mississauga"
W3809131,East Credit,1132000,2017-06-06,Detached,2-Storey,4,4,43.5816291,-79.6953221,house,,,"1589 Carrington Rd, Mississauga"
W3824569,Central Erin Mills,1180000,2017-06-06,Detached,2-Storey,4,4,43.5701289,-79.7318575,house,,,"5859 Tayside Cres, Mississauga"
W3790724,Erin Mills,1225000,2017-06-06,Detached,2-Storey,4,4,43.5392334,-79.66406,house,,,"3012 Redstart Dr, Mississauga"
W3818756,Clarkson,640000,2017-06-06,Semi-Detached,Bungalow,3,2,43.5194266,-79.6446204,house,,,"1499 Swanage Cres, Mississauga"
W3811829,Clarkson,800000,2017-06-06,Semi-Detached,Bungalow-Raised,3,2,43.5064346,-79.6489936,house,,,"1294 Playford Rd, Mississauga"
W3814919,Erin Mills,957000,2017-06-06,Detached,2-Storey,4,4,43.5217956,-79.6925978,house,,,"3235 Dovetail Mews, Mississauga"
W3792628,Cooksville,250000,2017-06-06,Condo Apt,Apartment,2,1,43.5850185,-79.6167717,condo,707.32,809,"3120 Kirwin Ave, Mississauga"
W3792899,City Centre,335000,2017-06-06,Condo Apt,Apartment,1,1,43.5862105,-79.6429298,condo,389,606,"330 Burnhamthorpe Rd, Mississauga"
W3822204,City Centre,362000,2017-06-06,Condo Apt,Apartment,1,1,43.5886878,-79.6492378,condo,502.57,3410,"385 Prince Of Wales Dr, Mississauga"
W3819053,Hurontario,392000,2017-06-06,Condo Apt,Apartment,1,1,43.6061403,-79.6542717,condo,392.89,1608,"55 Eglinton Ave, Mississauga"
W3825817,City Centre,425000,2017-06-06,Condo Apt,Apartment,2,1,43.5890786,-79.6505764,condo,691.21,706,"330 Rathburn Rd, Mississauga"
W3826633,City Centre,405000,2017-06-06,Condo Apt,Apartment,2,1,43.5837092,-79.6430719,condo,553,2006,"400 Webb Dr, Mississauga"
W3812559,Hurontario,398000,2017-06-06,Condo Townhouse,Stacked Townhse,2,2,43.612392,-79.650048,condo,397.96,110 A,"211 Forum Dr, Mississauga"
W3825632,Meadowvale,399900,2017-06-06,Condo Townhouse,Bungalow,2,1,43.5879717,-79.7571431,condo,370,59,"2701 Aquitaine Ave, Mississauga"
W3813416,Lisgar,399000,2017-06-06,Condo Townhouse,2-Storey,2,1,43.5830385,-79.7761216,condo,238.84,57,"6950 Tenth Line, Mississauga"
W3818978,City Centre,410000,2017-06-06,Condo Apt,Apartment,2,2,43.5949506,-79.6345102,condo,811,1306,"70 Absolute Ave, Mississauga"
W3810373,City Centre,445000,2017-06-06,Condo Apt,Apartment,2,2,43.5877598,-79.6457366,condo,573.93,1101,"4080 Living Arts Dr, Mississauga"
W3818945,Hurontario,475000,2017-06-06,Comm Element Condo,Apartment,2,2,43.5881453,-79.6480628,condo,520.63,1704,"388 Prince Of Wales Dr, Mississauga"
W3820104,Mississauga Valleys,486000,2017-06-06,Condo Apt,Apartment,3,2,43.5980918,-79.6263544,condo,922.09,912,"1320 Mississauga Valley Blvd, Mississauga"
W3817992,Mississauga Valleys,475000,2017-06-06,Condo Apt,Apartment,3,2,43.5903906,-79.6285479,condo,825.36,601,"50 Elm Dr, Mississauga"
W3821355,City Centre,505000,2017-06-06,Condo Apt,Apartment,2,2,43.5877598,-79.6457366,condo,737.44,2610,"4080 Living Arts Dr, Mississauga"
W3812335,City Centre,507000,2017-06-06,Condo Apt,Apartment,2,2,43.5870968,-79.6411905,condo,752.14,2824,"3888 Duke Of York Blvd, Mississauga"
W3815825,Mississauga Valleys,545000,2017-06-06,Condo Townhouse,2-Storey,3,3,43.5947354,-79.6048523,condo,395,33,"600 Silver Creek Blvd, Mississauga"
W3832056,Lakeview,575000,2017-06-06,Condo Apt,Apartment,3,2,43.5883117,-79.5482307,condo,759.25,1605,"1515 Lakeshore Rd, Mississauga"
W3784984,Central Erin Mills,375000,2017-06-06,Condo Apt,Apartment,1,1,43.5564954,-79.7091531,condo,378,1608,"2560 Eglinton Ave, Mississauga"
W3820729,Central Erin Mills,375000,2017-06-06,Condo Townhouse,Stacked Townhse,1,1,43.5528158,-79.7186683,condo,202.25,5,"2895 Hazelton Pl, Mississauga"
W3823764,Churchill Meadows,452000,2017-06-06,Condo Townhouse,Stacked Townhse,2,2,43.5595622,-79.7356726,condo,260.66,7,"3070 Thomas St, Mississauga"
W3814722,Clarkson,740000,2017-06-06,Condo Townhouse,2-Storey,3,4,43.51408112,-79.63123441,condo,435.6,77,"1200 Walden Circ, Mississauga"
W3806684,Meadowvale Village,788000,2017-06-05,Semi-Detached,2-Storey,3,3,43.6357833,-79.7280896,house,,,"7227 Para Pl, Mississauga"
W3830595,Rathwood,1260000,2017-06-05,Detached,2-Storey,4,4,43.6391825,-79.5939772,house,,,"2059 Bough Beeches Blvd, Mississauga"
W3813737,Meadowvale Village,643000,2017-06-05,Att/Row/Twnhouse,2-Storey,3,4,43.6258631,-79.7048957,house,,,"6569 Skipper Way, Mississauga"
W3806444,East Credit,687500,2017-06-05,Semi-Detached,2-Storey,3,3,43.6030035,-79.6943677,house,,,"867 Ledbury Cres, Mississauga"
W3813632,Applewood,697000,2017-06-05,Semi-Detached,Backsplit 3,4,2,43.6185991,-79.5839021,house,,,"3191 Fieldgate Dr, Mississauga"
W3808753,Applewood,735000,2017-06-05,Semi-Detached,Backsplit 3,3,3,43.6107611,-79.5990113,house,,,"1143 Saturnia Cres, Mississauga"
W3811194,Cooksville,730000,2017-06-05,Semi-Detached,Backsplit 5,4,3,43.5659583,-79.6296535,house,,,"2552 Palisander Ave, Mississauga"
W3824505,East Credit,765000,2017-06-05,Semi-Detached,2-Storey,3,4,43.5945092,-79.688668,house,,,"1205 Foxglove Pl, Mississauga"
W3819761,Central Erin Mills,801000,2017-06-05,Semi-Detached,2-Storey,3,4,43.5721834,-79.7174852,house,,,"2309 Bankside Dr, Mississauga"
W3823646,Lakeview,825000,2017-06-05,Detached,2-Storey,4,2,43.6049817,-79.5664122,house,,,"1619 Sherway Dr, Mississauga"
W3810356,Rathwood,795000,2017-06-05,Detached,2-Storey,4,4,43.6162345,-79.6195929,house,,,"4215 Torino Cres, Mississauga"
W3829982,East Credit,788888,2017-06-05,Detached,2-Storey,4,3,43.5895353,-79.7017767,house,,,"1483 Evenside Cres, Mississauga"
W3823770,Churchill Meadows,830000,2017-06-05,Semi-Detached,2-Storey,3,4,43.554452,-79.7412138,house,,,"3516 Fountain Park Ave, Mississauga"
W3802699,Meadowvale,863000,2017-06-05,Detached,2-Storey,3,4,43.5761792,-79.7453332,house,,,"2797 Inlake Crt, Mississauga"
W3827874,Rathwood,970000,2017-06-05,Detached,2-Storey,4,3,43.6152996,-79.6239939,house,,,"777 Willowbank Tr, Mississauga"
W3823711,Fairview,1075529,2017-06-05,Detached,2-Storey,4,3,43.5754449,-79.637776,house,,,"529 Nanak Rd, Mississauga"
W3826360,Churchill Meadows,1052000,2017-06-05,Detached,2-Storey,4,4,43.5532363,-79.728665,house,,,"3113 Mission Hill Dr, Mississauga"
W3822530,Applewood,1285000,2017-06-05,Detached,2-Storey,4,5,43.6108779,-79.609483,house,,,"3575 Swirlingleaves Cres, Mississauga"
W3823400,Mineola,1450000,2017-06-05,Detached,2-Storey,4,4,43.5702673,-79.5785646,house,,,"448 Aqua Dr, Mississauga"
W3812917,Port Credit,1515000,2017-06-05,Link,2-Storey,4,4,43.5462079,-79.5959498,house,,,"27 Harrison Ave, Mississauga"
W3801884,Hurontario,1457000,2017-06-05,Detached,2-Storey,5,5,43.5905347,-79.6587188,house,,,"624 Orange Walk Cres, Mississauga"
W3816944,Central Erin Mills,2302000,2017-06-05,Detached,2-Storey,4,5,43.5707446,-79.7118389,house,,,"5380 Vail Crt, Mississauga"
W3812264,Erin Mills,759000,2017-06-05,Detached,Backsplit 3,4,2,43.5346301,-79.6844471,house,,,"3373 Martins Pine Cres, Mississauga"
W3812194,Malton,316100,2017-06-05,Condo Apt,Apartment,2,2,43.7220164,-79.6423563,condo,283.79,614,"7405 Goreway Dr, Mississauga"
W3831517,Meadowvale,275000,2017-06-05,Condo Apt,Apartment,2,2,43.5837179,-79.7628877,condo,722.55,707,"2929 Aquitaine Ave, Mississauga"
W3817708,Cooksville,334000,2017-06-05,Condo Apt,Apartment,3,2,43.572979,-79.6117505,condo,918.75,1008,"2323 Confederation Pkwy, Mississauga"
W3801402,Meadowvale,275000,2017-06-05,Condo Apt,Apartment,2,2,43.5837179,-79.7628877,condo,722.55,902,"2929 Aquitaine Ave, Mississauga"
W3820115,City Centre,317500,2017-06-05,Condo Apt,Apartment,1,1,43.5955399,-79.6338394,condo,509.62,1801,"90 Absolute Ave, Mississauga"
W3823315,City Centre,350000,2017-06-05,Condo Apt,Apartment,1,1,43.5877598,-79.6457366,condo,474.31,1007,"4080 Living Arts Dr, Mississauga"
W3822666,Hurontario,420500,2017-06-05,Condo Apt,Apartment,3,1,43.6167958,-79.6596926,condo,411.4,70,"117 Bristol Rd, Mississauga"
W3814054,City Centre,340900,2017-06-05,Condo Apt,Apartment,1,1,43.5851682,-79.6460669,condo,386.28,2809,"4011 Brickstone Mews, Mississauga"
W3829951,City Centre,345000,2017-06-05,Condo Apt,Apartment,2,1,43.5944944,-79.6351873,condo,601,1008,"60 Absolute Ave, Mississauga"
W3811589,City Centre,360000,2017-06-05,Condo Apt,Multi-Level,1,1,43.5894055,-79.6493188,condo,377.02,2207,"360 Square One Dr, Mississauga"
W3815275,Applewood,355000,2017-06-05,Condo Townhouse,Stacked Townhse,3,1,43.6036967,-79.5923135,condo,532.32,40,"3050 Constitution Blvd, Mississauga"
W3798339,City Centre,370000,2017-06-05,Condo Apt,Apartment,2,2,43.5944944,-79.6351873,condo,679.26,707,"60 Absolute Ave, Mississauga"
W3816941,City Centre,385000,2017-06-05,Comm Element Condo,Loft,1,2,43.5883799,-79.6399529,condo,555.57,1701,"223 Webb Dr, Mississauga"
W3828239,Mississauga Valleys,385000,2017-06-05,Condo Apt,Apartment,2,2,43.5914595,-79.6277922,condo,852.27,1101,"1580 Mississauga Valley Blvd, Mississauga"
W3797591,City Centre,460000,2017-06-05,Condo Apt,Apartment,2,2,43.5870968,-79.6411905,condo,574.8,2528,"3888 Duke Of York Blvd, Mississauga"
W3819382,Mississauga Valleys,520000,2017-06-05,Condo Townhouse,Multi-Level,3,2,43.59834,-79.620952,condo,432.88,#53,"405 Hyacinthe Blvd, Mississauga"
W3815977,Meadowvale,526000,2017-06-05,Condo Townhouse,3-Storey,3,3,43.5948848,-79.7619193,condo,375,24,"7077 Estoril Rd, Mississauga"
W3797598,Meadowvale Village,595000,2017-06-05,Condo Townhouse,2-Storey,3,3,43.6421599,-79.7281859,condo,243.9,8,"7385 Magistrate Terr, Mississauga"
W3798219,East Credit,650000,2017-06-05,Condo Townhouse,2-Storey,3,4,43.59002743,-79.67363184,condo,224,161,"5030 Heatherleigh Ave, Mississauga"
W3823817,Hurontario,700000,2017-06-05,Condo Townhouse,3-Storey,3,3,43.61856843,-79.64892894,condo,278.27,168,"455 Apache Crt, Mississauga"
W3823553,Central Erin Mills,378900,2017-06-05,Condo Apt,Apartment,1,1,43.5564954,-79.7091531,condo,378.57,1908,"2560 Eglinton Ave, Mississauga"
W3796168,Churchill Meadows,550000,2017-06-05,Condo Townhouse,2-Storey,2,3,43.5518557,-79.7228938,condo,303.96,114,"3050 Erin Centre Blvd, Mississauga"
W3829242,Erin Mills,595000,2017-06-05,Condo Townhouse,2-Storey,3,3,43.525528,-79.687285,condo,453.5,115,"3050 Orleans Rd, Mississauga"
W3811568,Malton,555000,2017-06-04,Semi-Detached,2-Storey,4,3,43.7104518,-79.6481201,house,,,"3061 Harold Sheard Dr, Mississauga"
W3795765,Malton,647000,2017-06-04,Semi-Detached,Bungalow-Raised,3,2,43.7154702,-79.6452108,house,,,"7328 Shallford Rd, Mississauga"
W3809924,Meadowvale,632000,2017-06-04,Semi-Detached,2-Storey,3,4,43.5873375,-79.7729272,house,,,"3068 Pendleton Rd, Mississauga"
W3823599,Lisgar,665000,2017-06-04,Semi-Detached,2-Storey,3,2,43.5881426,-79.7889636,house,,,"3206 Apricot St, Mississauga"
W3821432,Erindale,740000,2017-06-04,Semi-Detached,Bungalow-Raised,3,2,43.564613,-79.6631276,house,,,"1349 Freeport Dr, Mississauga"
W3818926,Churchill Meadows,692500,2017-06-04,Semi-Detached,2-Storey,3,3,43.5569308,-79.7538348,house,,,"5915 Churchill Meadows Blvd, Mississauga"
W3827258,Lisgar,825000,2017-06-04,Detached,2-Storey,3,4,43.5675517,-79.7589796,house,,,"6337 Prairie Circ, Mississauga"
W3817598,Meadowvale Village,746000,2017-06-04,Semi-Detached,2-Storey,3,3,43.6231003,-79.7257774,house,,,"1075 Carding Mill Pl, Mississauga"
W3812374,East Credit,745000,2017-06-04,Semi-Detached,2-Storey,3,3,43.5932331,-79.6859943,house,,,"5368 Bullrush Dr, Mississauga"
W3820374,Lakeview,950000,2017-06-04,Detached,Backsplit 4,4,2,43.5970696,-79.5787918,house,,,"1143 Melton Dr, Mississauga"
W3811898,Meadowvale,825000,2017-06-04,Detached,2-Storey,4,3,43.5709942,-79.7492131,house,,,"6239 Edenwood Dr, Mississauga"
W3824449,Creditview,845000,2017-06-04,Detached,2-Storey,3,3,43.5724894,-79.6625574,house,,,"1055 Lucerne Cres, Mississauga"
W3814291,Applewood,830000,2017-06-04,Detached,Bungalow,3,2,43.6251594,-79.5950805,house,,,"1420 Glen Rutley Circ, Mississauga"
W3823274,Central Erin Mills,882000,2017-06-04,Detached,2-Storey,4,4,43.5724369,-79.7274218,house,,,"2541 Scarth Crt, Mississauga"
W3821264,Lisgar,988800,2017-06-04,Detached,2-Storey,4,3,43.5755315,-79.7708876,house,,,"6742 Snow Goose Lane, Mississauga"
W3822938,Central Erin Mills,1065000,2017-06-04,Detached,2-Storey,4,3,43.5707738,-79.72538,house,,,"2488 Strathmore Cres, Mississauga"
W3797224,Meadowvale Village,1300000,2017-06-04,Detached,2-Storey,4,3,43.6264065,-79.7459976,house,,,"7399 Glamorgan Way, Mississauga"
W3812791,Meadowvale Village,1690000,2017-06-04,Detached,2-Storey,4,5,43.6240146,-79.725924,house,,,"6889 Early Settler Row, Mississauga"
W3805904,Lakeview,1995000,2017-06-04,Detached,2-Storey,4,5,43.5683095,-79.5630764,house,,,"680 Montbeck Cres, Mississauga"
W3820710,Clarkson,639000,2017-06-04,Semi-Detached,Backsplit 3,4,2,43.5073961,-79.6582056,house,,,"1516 Banwell Rd, Mississauga"
W3795904,Sheridan,665000,2017-06-04,Semi-Detached,2-Storey,4,2,43.5185774,-79.6748031,house,,,"2736 Hollington Cres, Mississauga"
W3823412,Erin Mills,739000,2017-06-04,Att/Row/Twnhouse,2-Storey,3,4,43.522953,-79.7020173,house,,,"3454 Fenwick Cres, Mississauga"
W3828008,Lorne Park,1435000,2017-06-04,Detached,Backsplit 4,3,3,43.5295414,-79.623467,house,,,"1446 Birchwood Dr, Mississauga"
W3823957,City Centre,340000,2017-06-04,Condo Apt,Apartment,1,1,43.5908484,-79.6320084,condo,319.86,905,"33 Elm Dr, Mississauga"
W3824089,City Centre,349900,2017-06-04,Condo Apt,Apartment,1,1,43.5886878,-79.6492378,condo,474.28,407,"385 Prince Of Wales Dr, Mississauga"
W3803459,City Centre,370000,2017-06-04,Condo Apt,Apartment,1,2,43.5956374,-79.6348433,condo,478.11,801,"80 Absolute Ave, Mississauga"
W3819563,Mississauga Valleys,362000,2017-06-04,Condo Apt,Apartment,2,2,43.5996939,-79.6270832,condo,922.09,811,"1300 Mississauga Valley Blvd, Mississauga"
W3812423,City Centre,402000,2017-06-04,Condo Apt,Apartment,1,2,43.5885329,-79.6404578,condo,526.23,701,"220 Burnhamthorpe Rd, Mississauga"
W3812049,Cooksville,414000,2017-06-04,Condo Apt,Apartment,3,2,43.5710959,-79.6023922,condo,884.2,Ph9,"2091 Hurontario St, Mississauga"
W3811331,City Centre,425000,2017-06-04,Condo Apt,Apartment,2,2,43.5898543,-79.6349476,condo,817.16,301,"3605 Kariya Dr, Mississauga"
W3822222,Lisgar,553300,2017-06-04,Condo Townhouse,2-Storey,3,2,43.5812221,-79.78038132,condo,200,,"7201 Triumph Lane, Mississauga"
W3821527,East Credit,641000,2017-06-04,Condo Townhouse,2-Storey,3,4,43.5926151,-79.6736938,condo,375.66,107,"833 Scollard Crt, Mississauga"
W3823497,Cooksville,700000,2017-06-04,Condo Townhouse,3-Storey,3,3,43.5789582,-79.6258225,condo,200,,"3168 Pinto Pl, Mississauga"
W3813561,Lakeview,769000,2017-06-04,Condo Apt,Apartment,2,2,43.5913811,-79.5610657,condo,1075,2107,"1400 Dixie Rd, Mississauga"
W3797507,Central Erin Mills,351000,2017-06-04,Condo Apt,Apartment,1,1,43.5525463,-79.7123564,condo,367,1601,"4850 Glen Erin Dr, Mississauga"
W3808044,Churchill Meadows,435000,2017-06-04,Condo Townhouse,Stacked Townhse,2,2,43.5594639,-79.7366599,condo,260.66,7,"3100 Thomas St, Mississauga"
W3815123,Port Credit,585000,2017-06-04,Condo Townhouse,2-Storey,3,2,43.540048,-79.600791,condo,440,59,"1050 Shawnmarr Rd, Mississauga"
W3827761,Malton,725000,2017-06-03,Detached,Backsplit 4,4,3,43.7256805,-79.6338488,house,,,"3724 Wyewood Rd, Mississauga"
W3814521,East Credit,660000,2017-06-03,Semi-Detached,2-Storey,4,4,43.6034938,-79.6941729,house,,,"913 Ledbury Cres, Mississauga"
W3822588,Applewood,850000,2017-06-03,Semi-Detached,Bungalow-Raised,3,2,43.608543,-79.6158096,house,,,"771 Annamore Rd, Mississauga"
W3778876,City Centre,390000,2017-06-03,Condo Apt,Apartment,2,2,43.5856784,-79.641697,condo,630.88,2208,"335 Webb Dr, Mississauga"
W3826932,Clarkson,310000,2017-06-03,Condo Apt,Apartment,2,2,43.5122898,-79.6266312,condo,522.06,409,"966 Inverhouse Dr, Mississauga"
W3824711,Cooksville,820000,2017-06-02,Detached,2-Storey,3,3,43.5779034,-79.6284304,house,,,"3192 Rolling Stone Crt, Mississauga"
W3807571,Hurontario,735000,2017-06-02,Semi-Detached,2-Storey,3,4,43.6147648,-79.6432658,house,,,"4715 Owl Circ, Mississauga"
W3821777,Streetsville,710000,2017-06-02,Detached,Sidesplit 3,3,2,43.6032915,-79.7251885,house,,,"73 Bowshelm Crt, Mississauga"
W3823264,Lisgar,725000,2017-06-02,Semi-Detached,2-Storey,3,4,43.5823842,-79.7842529,house,,,"3401 Scotch Pine Gate, Mississauga"
W3814527,Rathwood,745000,2017-06-02,Semi-Detached,Bungalow-Raised,3,2,43.5992728,-79.6304015,house,,,"3979 Bishopstoke Lane, Mississauga"
W3817383,Churchill Meadows,982500,2017-06-02,Detached,2-Storey,4,4,43.5616903,-79.746387,house,,,"3217 Mcdowell Dr, Mississauga"
W3824079,Creditview,1270000,2017-06-02,Detached,2-Storey,5,4,43.587344,-79.6533482,house,,,"4222 Via Russo Crt, Mississauga"
W3786645,Erindale,1710000,2017-06-02,Detached,Bungalow,4,4,43.5594288,-79.6146633,house,,,"2106 Stavebank Rd, Mississauga"
W3825482,Cooksville,249000,2017-06-02,Condo Townhouse,Stacked Townhse,1,1,43.5705026,-79.6302246,condo,255.93,121,"601 Shoreline Dr, Mississauga"
W3824456,Cooksville,260500,2017-06-02,Condo Apt,Apartment,2,1,43.5850185,-79.6167717,condo,727.32,406,"3120 Kirwin Ave, Mississauga"
W3758490,Hurontario,495000,2017-06-02,Condo Apt,Apartment,2,2,43.6061496,-79.6545447,condo,520,2207,"75 Eglinton Ave, Mississauga"
W3797482,Hurontario,532000,2017-06-02,Condo Townhouse,3-Storey,1,3,43.611269,-79.660495,condo,147,40,"75 Strathaven Dr, Mississauga"
W3796813,Hurontario,670000,2017-06-02,Condo Townhouse,2-Storey,3,4,43.604632,-79.672182,condo,230,49,"470 Faith Dr, Mississauga"
W3825820,Central Erin Mills,345000,2017-06-02,Condo Apt,Apartment,1,1,43.561597,-79.712093,condo,482.05,1802,"2545 Erin Centre Blvd, Mississauga"
W3818662,Erindale,400000,2017-06-02,Condo Apt,2-Storey,4,2,43.5527313,-79.6488948,condo,573.79,208,"3025 The Credit Woodlands St, Mississauga"
W3826321,Erin Mills,510000,2017-06-02,Condo Townhouse,2-Storey,3,1,43.5373081,-79.6705343,condo,339.23,51,"3100 Fifth Line, Mississauga"
W3823587,Clarkson,530000,2017-06-02,Condo Townhouse,3-Storey,4,2,43.512127,-79.624596,condo,320,21,"915 Inverhouse Dr, Mississauga"
W3796077,Erin Mills,560000,2017-06-02,Condo Townhouse,2-Storey,3,4,43.54593522,-79.68156743,condo,375.73,70,"3500 South Millway , Mississauga"
W3781671,Central Erin Mills,730000,2017-06-02,Condo Townhouse,2-Storey,2,4,43.5636808,-79.7249739,condo,402.95,114,"5480 Glen Erin Dr, Mississauga"
W3821990,Lisgar,685000,2017-06-01,Semi-Detached,2-Storey,3,4,43.5805206,-79.7916764,house,,,"3941 Milkwood Cres, Mississauga"
W3821391,Meadowvale,650000,2017-06-01,Semi-Detached,2-Storey,3,3,43.5936434,-79.7728708,house,,,"7296 Joliette Cres, Mississauga"
W3809268,Lisgar,708000,2017-06-01,Detached,2-Storey,3,4,43.5860295,-79.7803866,house,,,"3272 Bruzan Cres, Mississauga"
W3794766,Hurontario,720000,2017-06-01,Semi-Detached,2-Storey,3,4,43.6190168,-79.6665116,house,,,"5558 Cortina Cres, Mississauga"
W3811950,Churchill Meadows,750000,2017-06-01,Semi-Detached,2-Storey,4,3,43.5486281,-79.749434,house,,,"5655 Topaz Pl, Mississauga"
W3786467,Creditview,785000,2017-06-01,Detached,2-Storey,3,4,43.5856246,-79.6573369,house,,,"4263 Sugarbush Rd, Mississauga"
W3809730,Hurontario,815000,2017-06-01,Detached,2-Storey,3,4,43.6065184,-79.677734,house,,,"5463 Champlain Tr, Mississauga"
W3824317,East Credit,862000,2017-06-01,Detached,2-Storey,4,3,43.5854848,-79.6805792,house,,,"1189 Sherwood Mills Blvd, Mississauga"
W3780876,Cooksville,840000,2017-06-01,Detached,Backsplit 4,3,2,43.5658228,-79.6305589,house,,,"2714 Kingsberry Cres, Mississauga"
W3805785,Lakeview,920177,2017-06-01,Detached,1 1/2 Storey,2,3,43.5884402,-79.569922,house,,,"1485 Applewood Rd, Mississauga"
W3822558,Lakeview,999000,2017-06-01,Detached,Bungalow,3,3,43.6016971,-79.5672549,house,,,"2077 Proverbs Dr, Mississauga"
W3821171,Meadowvale Village,1150000,2017-06-01,Detached,2-Storey,4,4,43.6211951,-79.7271592,house,,,"1156 Carding Mill Pl, Mississauga"
W3804325,Erindale,1100000,2017-06-01,Detached,2-Storey,5,3,43.5562998,-79.6321388,house,,,"905 Sami St, Mississauga"
W3812895,Lisgar,1200000,2017-06-01,Detached,2-Storey,4,4,43.5715771,-79.7675871,house,,,"3393 Trelawny Circ, Mississauga"
W3802035,Mineola,1225000,2017-06-01,Detached,Bungalow-Raised,3,2,43.5543867,-79.5903148,house,,,"183 Rosemere Rd, Mississauga"
W3826292,Hurontario,300000,2017-06-01,Condo Townhouse,3-Storey,1,1,43.6166682,-79.6607153,condo,388,140,"109 Bristol Rd, Mississauga"
W3796481,City Centre,286000,2017-06-01,Condo Apt,Apartment,1,1,43.5937139,-79.6310131,condo,594.88,809,"3695 Kaneff Cres, Mississauga"
W3813575,Cooksville,310000,2017-06-01,Condo Apt,Apartment,2,1,43.5802329,-79.6241531,condo,522.63,Ph 15,"145 Hillcrest Ave, Mississauga"
W3821625,City Centre,339900,2017-06-01,Condo Apt,Apartment,1,1,43.5949506,-79.6345102,condo,547.33,505,"70 Absolute Ave, Mississauga"
W3795966,City Centre,359000,2017-06-01,Condo Apt,Apartment,1,1,43.5886878,-79.6492378,condo,434.56,2603,"385 Prince Of Wales Dr, Mississauga"
W3800693,City Centre,415000,2017-06-01,Condo Apt,Apartment,2,2,43.5908212,-79.6320075,condo,453.45,2005,"1 Elm Dr, Mississauga"
W3816738,Lakeview,615000,2017-06-01,Condo Townhouse,3-Storey,3,3,43.5756673,-79.5713181,condo,423.39,13,"1241 Parkwest Pl, Mississauga"
W3814327,Cooksville,646000,2017-06-01,Condo Townhouse,3-Storey,3,3,43.576304,-79.626792,condo,170,14,"280 Hillcrest Ave, Mississauga"
W3812533,Lakeview,630000,2017-06-01,Condo Townhouse,3-Storey,3,2,43.5743129,-79.570719,condo,125,,"745 Village Green Blvd, Mississauga"
W3799547,Churchill Meadows,482500,2017-06-01,Condo Townhouse,Stacked Townhse,2,2,43.559553,-79.7415314,condo,234.67,12,"3250 Bentley Dr, Mississauga"
W3798050,Port Credit,535000,2017-06-01,Condo Townhouse,2-Storey,3,1,43.540048,-79.600791,condo,440,112,"1050 Shawnmarr Rd, Mississauga"
W3802200,Erin Mills,585000,2017-06-01,Condo Apt,Apartment,2,2,43.544256,-79.668059,condo,809.55,105,"1800 The Collegeway , Mississauga"
W3802783,Erin Mills,1500000,2017-06-01,Condo Apt,Apartment,2,3,43.5447073,-79.6694452,condo,1357.44,1001,"1900 The Collegeway , Mississauga"
